{
"type": "FeatureCollection",
"name": "Dental_Clinics",
"crs": { "type": "name", "properties": { "name": "urn:ogc:def:crs:OGC:1.3:CRS84" } },
"features": [
{ "type": "Feature", "properties": { "Name": "Bona Dental Clinic", "Address": "4Th Floor, Eleganza Biro Plaza, Plot 634, Adeyemo Alakija Akin Adesola Street", "State": "Lagos", "LGA": "Eti Osa", "HMO Plan": "Plan1" }, "geometry": { "type": "Point", "coordinates": [ 3.4245352, 6.4360043 ] } },
{ "type": "Feature", "properties": { "Name": "Divine Dental Home", "Address": "8B Fabac Close", "State": "Lagos", "LGA": "Eti Osa", "HMO Plan": "Plan1" }, "geometry": { "type": "Point", "coordinates": [ 3.4386936, 6.4341948 ] } },
{ "type": "Feature", "properties": { "Name": "Aquagem Dental Clinic", "Address": "7 Babatunde Jose Street, Victoria Island", "State": "Lagos", "LGA": "Eti Osa", "HMO Plan": "Plan4" }, "geometry": { "type": "Point", "coordinates": [ 3.4319661, 6.4356986 ] } },
{ "type": "Feature", "properties": { "Name": "Dental Plus Limited", "Address": "Plot 255, Muri Okunola Street, Victoria Island, Lagos", "State": "Lagos", "LGA": "Eti Osa", "HMO Plan": "Plan3" }, "geometry": { "type": "Point", "coordinates": [ 3.4317145, 6.4315409 ] } },
{ "type": "Feature", "properties": { "Name": "Mouth Spa Dental Clinic", "Address": "Plot 234A Muri Okunola Street Victoria Island", "State": "Lagos", "LGA": "Eti Osa", "HMO Plan": "Plan1" }, "geometry": { "type": "Point", "coordinates": [ 3.4375988, 6.4320848 ] } },
{ "type": "Feature", "properties": { "Name": "Choice Dental Clinic", "Address": "1378D Karimu Kotun Street(Off Akin Adesola St.)Victoria Island, Lagos.", "State": "Lagos", "LGA": "Eti Osa", "HMO Plan": "Plan1" }, "geometry": { "type": "Point", "coordinates": [ 3.4256219, 6.4287836 ] } },
{ "type": "Feature", "properties": { "Name": "Beaconhill Smile Clinic", "Address": "8A Adeola Odeku Street,Victoria Island,Lagos", "State": "Lagos", "LGA": "Eti Osa", "HMO Plan": "Plan2" }, "geometry": { "type": "Point", "coordinates": [ 3.4296019, 6.4286991 ] } },
{ "type": "Feature", "properties": { "Name": "Novadent Dental Clinic", "Address": "36 Landbridge Avenue Unit 2, Behind Palm Mall(Shoprite) Oniru.", "State": "Lagos", "LGA": "Eti Osa", "HMO Plan": "Plan1" }, "geometry": { "type": "Point", "coordinates": [ 3.4513348, 6.4348091 ] } },
{ "type": "Feature", "properties": { "Name": "Family Dental Care", "Address": "1619 Danmole Street Off Idejo Street Off Adeola Odeku Victoria Island Lagos", "State": "Lagos", "LGA": "Eti Osa", "HMO Plan": "Plan4" }, "geometry": { "type": "Point", "coordinates": [ 3.4136442, 6.4280891 ] } },
{ "type": "Feature", "properties": { "Name": "Rabboni Dental Victoria Island", "Address": "Fmda Building Plot 1398B Tiamiyu Salvage Street Opp Dstv Office Victoria Island", "State": "Lagos", "LGA": "Eti Osa", "HMO Plan": "Plan3" }, "geometry": { "type": "Point", "coordinates": [ 3.4267119, 6.4250598 ] } },
{ "type": "Feature", "properties": { "Name": "Dulce 247 Dental Clinic", "Address": "4 Ligali Ayorinde Street, Vi", "State": "Lagos", "LGA": "Eti Osa", "HMO Plan": "Plan1" }, "geometry": { "type": "Point", "coordinates": [ 3.4400135, 6.4342205 ] } },
{ "type": "Feature", "properties": { "Name": "Exclusive Smile", "Address": "12B, Agoro Odiyan Street, Victoria Island, Lagos", "State": "Lagos", "LGA": "Eti Osa", "HMO Plan": "Plan4" }, "geometry": { "type": "Point", "coordinates": [ 3.4187742, 6.4288748 ] } },
{ "type": "Feature", "properties": { "Name": "Smile 360 Dental", "Address": "No 40A Cameron, Ikoyi", "State": "Lagos", "LGA": "Eti Osa", "HMO Plan": "Plan1" }, "geometry": { "type": "Point", "coordinates": [ 3.433333, 6.45 ] } },
{ "type": "Feature", "properties": { "Name": "Skky Dental Clinic", "Address": "27B, Lugard Avenue", "State": "Lagos", "LGA": "Eti Osa", "HMO Plan": "Plan3" }, "geometry": { "type": "Point", "coordinates": [ 3.4337253, 6.4548388 ] } },
{ "type": "Feature", "properties": { "Name": "Faces N Braces Dental Clinics", "Address": "Plot 7, Agodogba Drive, Park View Estate Extension, Off Gerard Rd", "State": "Lagos", "LGA": "Eti Osa", "HMO Plan": "Plan3" }, "geometry": { "type": "Point", "coordinates": [ 3.4390485, 6.4564655 ] } },
{ "type": "Feature", "properties": { "Name": "Richmond Dental Clinic", "Address": "26, Maitama Sule Street, Off Raymond Njoku Street", "State": "Lagos", "LGA": "Eti Osa", "HMO Plan": "Plan3" }, "geometry": { "type": "Point", "coordinates": [ 3.4224199, 6.44263 ] } },
{ "type": "Feature", "properties": { "Name": "Schubbs Dental Clinics", "Address": "22B Milverton Road, Ikoyi", "State": "Lagos", "LGA": "Eti Osa", "HMO Plan": "Plan4" }, "geometry": { "type": "Point", "coordinates": [ 3.4493169, 6.4472173 ] } },
{ "type": "Feature", "properties": { "Name": "Gilgal Dental Clinics Lagos", "Address": "2 Olawale Daudu Road,Off Alfred Rewane Street,Ikoyi", "State": "Lagos", "LGA": "Eti Osa", "HMO Plan": "Plan3" }, "geometry": { "type": "Point", "coordinates": [ 3.4288422, 6.4488358 ] } },
{ "type": "Feature", "properties": { "Name": "Andchristie Dental Clinic", "Address": "46 Raymond Njoku Street Off Awolowo Road South West Ikoyi", "State": "Lagos", "LGA": "Eti Osa", "HMO Plan": "Plan1" }, "geometry": { "type": "Point", "coordinates": [ 3.419578, 6.4417935 ] } },
{ "type": "Feature", "properties": { "Name": "Medical And Dental Consultants Services", "Address": "Plot L2 Adunola House Banana Island Ikoyi Lagos", "State": "Lagos", "LGA": "Eti Osa", "HMO Plan": "Plan3" }, "geometry": { "type": "Point", "coordinates": [ 3.4470343, 6.4680708 ] } },
{ "type": "Feature", "properties": { "Name": "Amara Medicare Ltd", "Address": "202, Awolowo Road, Ikoyi", "State": "Lagos", "LGA": "Eti Osa", "HMO Plan": "Plan1" }, "geometry": { "type": "Point", "coordinates": [ 3.4269933, 6.4447542 ] } },
{ "type": "Feature", "properties": { "Name": "The Smilehub Orthodontic Ltd", "Address": "120 Awolowo Road, Ikoyi", "State": "Lagos", "LGA": "Eti Osa", "HMO Plan": "Plan1" }, "geometry": { "type": "Point", "coordinates": [ 3.4184593, 6.4419201 ] } },
{ "type": "Feature", "properties": { "Name": "Blanche Dental Clinic", "Address": "2B Adebisi Popoola Crescent, Off Victoria Arobieke Street, Lekki Phs 1", "State": "Lagos", "LGA": "Eti Osa", "HMO Plan": "Plan1" }, "geometry": { "type": "Point", "coordinates": [ 3.4728312, 6.4440078 ] } },
{ "type": "Feature", "properties": { "Name": "Smilesdotcom Dental Clinic", "Address": "3 Admiralty Road, Lekki Phase 1", "State": "Lagos", "LGA": "Eti Osa", "HMO Plan": "Plan3" }, "geometry": { "type": "Point", "coordinates": [ 3.46975, 6.4568407 ] } },
{ "type": "Feature", "properties": { "Name": "Ss Dental Clinic", "Address": "4B Wole Olateju Crescent Off Admiralty Phase 1 Lekki", "State": "Lagos", "LGA": "Eti Osa", "HMO Plan": "Plan3" }, "geometry": { "type": "Point", "coordinates": [ 3.4575558, 6.4482059 ] } },
{ "type": "Feature", "properties": { "Name": "Calens Dental Clinic", "Address": "54 Fatai Idowu Arobieke Street Lekki Phase 1", "State": "Lagos", "LGA": "Eti Osa", "HMO Plan": "Plan3" }, "geometry": { "type": "Point", "coordinates": [ 3.4788621, 6.455572 ] } },
{ "type": "Feature", "properties": { "Name": "The Ridge Dental Clinic", "Address": "Matis Brass Mall, 27 Castle Rock Avenue Osapa Lekki Phase 1", "State": "Lagos", "LGA": "Eti Osa", "HMO Plan": "Plan3" }, "geometry": { "type": "Point", "coordinates": [ 3.5081606, 6.4439906 ] } },
{ "type": "Feature", "properties": { "Name": "All Smiles Dental Clinic", "Address": "7 Tf Kuboye Street , Oniru, Vi, Lagos", "State": "Lagos", "LGA": "Eti Osa", "HMO Plan": "Plan3" }, "geometry": { "type": "Point", "coordinates": [ 3.4589548, 6.4288472 ] } },
{ "type": "Feature", "properties": { "Name": "Glaze Dental And Breath Clinic", "Address": "17J Admiral Ayinla Way, Lekki Phase 1, Lagos", "State": "Lagos", "LGA": "Eti Osa", "HMO Plan": "Plan1" }, "geometry": { "type": "Point", "coordinates": [ 3.4813022, 6.4397295 ] } },
{ "type": "Feature", "properties": { "Name": "Haven Dentals", "Address": "D Cherub Mall, Suite A9/10. Lekki-Epe Expressway, Opp Alpha Beach Junction, Lekki", "State": "Lagos", "LGA": "Eti Osa", "HMO Plan": "Plan1" }, "geometry": { "type": "Point", "coordinates": [ 3.5782956, 6.4696852 ] } },
{ "type": "Feature", "properties": { "Name": "Ferayan Dental And Dermatology Clinic", "Address": "5 Fola Osibo Street, Lekki Phase 1", "State": "Lagos", "LGA": "Eti Osa", "HMO Plan": "Plan1" }, "geometry": { "type": "Point", "coordinates": [ 3.4651087, 6.4429953 ] } },
{ "type": "Feature", "properties": { "Name": "Oral Dent Dental Clinic", "Address": "E62, Ikota Shopping Complex By Victoria Garden City Ajah, Lagos", "State": "Lagos", "LGA": "Eti Osa", "HMO Plan": "Plan1" }, "geometry": { "type": "Point", "coordinates": [ 3.5725244, 6.4645874 ] } },
{ "type": "Feature", "properties": { "Name": "Amara Medicare Ltd", "Address": "Plot 76B, Eleganza Gardens(Opposite Vgc) Lekki-Epe Expressway, Lagos", "State": "Lagos", "LGA": "Eti Osa", "HMO Plan": "Plan1" }, "geometry": { "type": "Point", "coordinates": [ 3.5559518, 6.4603012 ] } },
{ "type": "Feature", "properties": { "Name": "Amara Medicare Ltd", "Address": "Ff01 New Era Mall, Cardinal Okogie (Shoprite) Road, Sangotedo", "State": "Lagos", "LGA": "Eti Osa", "HMO Plan": "Plan1" }, "geometry": { "type": "Point", "coordinates": [ 3.6399594, 6.4590508 ] } },
{ "type": "Feature", "properties": { "Name": "Finesse Specialist Dental Clinics And Surgery", "Address": "Jeferry Plaza, Lekki-Epe Expressway, Abraham Adesanya Roundabout, Ajah", "State": "Lagos", "LGA": "Eti Osa", "HMO Plan": "Plan1" }, "geometry": { "type": "Point", "coordinates": [ 3.5627027, 6.4662882 ] } },
{ "type": "Feature", "properties": { "Name": "Caredent Dental Clinic", "Address": "The Quad, 20 Layi Yusuf Crescent Off Admiralty Way, Lekki Phase 1, Lago", "State": "Lagos", "LGA": "Eti Osa", "HMO Plan": "Plan3" }, "geometry": { "type": "Point", "coordinates": [ 3.4543815, 6.4385257 ] } },
{ "type": "Feature", "properties": { "Name": "Magical Smiles Dental And Maxillofacial Centre", "Address": "Suites 24/25, Ringback Mall, Mobil Filling Station, Km36 Lekki Epe Expressway, Oribanwa, Ibeju Lekki", "State": "Lagos", "LGA": "Ibeju Lekki", "HMO Plan": "Plan1" }, "geometry": { "type": "Point", "coordinates": [ 3.8858955, 6.4569054 ] } },
{ "type": "Feature", "properties": { "Name": "Bolkins Dental Clinic Lagos", "Address": "Km 22 Skiddo Bus Stop Beside Lagos High Court Ajah, Lagos", "State": "Lagos", "LGA": "Ifako/Ijaye", "HMO Plan": "Plan1" }, "geometry": { "type": "Point", "coordinates": [ 3.2846895, 6.681383 ] } },
{ "type": "Feature", "properties": { "Name": "Rave Dental Clinic", "Address": "5B College Road, Oyemekun Bus/Stop Ogba", "State": "Lagos", "LGA": "Ifako/Ijaye", "HMO Plan": "Plan1" }, "geometry": { "type": "Point", "coordinates": [ 3.3333796, 6.6375097 ] } },
{ "type": "Feature", "properties": { "Name": "Evans Dental Services Ltd", "Address": "Ajayi Road,Off Yaya Abatan Road Ogba", "State": "Lagos", "LGA": "Ifako/Ijaye", "HMO Plan": "Plan1" }, "geometry": { "type": "Point", "coordinates": [ 3.3392539, 6.6360021 ] } },
{ "type": "Feature", "properties": { "Name": "Peve Dental Clinic", "Address": "51 Iju Road, Pen Cinema, Agege", "State": "Lagos", "LGA": "Ifako/Ijaye", "HMO Plan": "Plan1" }, "geometry": { "type": "Point", "coordinates": [ 3.324589, 6.6302014 ] } },
{ "type": "Feature", "properties": { "Name": "Osagie Dental Clinic", "Address": "1St Floor 14,Boyle Street,Onikan,Lagos", "State": "Lagos", "LGA": "Lagos Island", "HMO Plan": "Plan1" }, "geometry": { "type": "Point", "coordinates": [ 3.4041444, 6.4457578 ] } },
{ "type": "Feature", "properties": { "Name": "Tbs Dental Clinic", "Address": "Shop 6 Tafawa Balewa Square Shopping Comple, East Pavillion Onikan Lagos", "State": "Lagos", "LGA": "Lagos Island", "HMO Plan": "Plan1" }, "geometry": { "type": "Point", "coordinates": [ 3.4022018, 6.448607 ] } },
{ "type": "Feature", "properties": { "Name": "Zeta Dental Services", "Address": "289 Borno Way, Ebute Metta", "State": "Lagos", "LGA": "Lagos Mainland", "HMO Plan": "Plan1" }, "geometry": { "type": "Point", "coordinates": [ 3.3782633, 6.4950987 ] } },
{ "type": "Feature", "properties": { "Name": "Asman Dental Clinic", "Address": "10 Barikisu Iyede Street Onike Roundabout Onike Yaba", "State": "Lagos", "LGA": "Lagos Mainland", "HMO Plan": "Plan1" }, "geometry": { "type": "Point", "coordinates": [ 3.3839541, 6.5104822 ] } },
{ "type": "Feature", "properties": { "Name": "First Mobile Dental Care", "Address": "44B Montgomery Road, Yaba", "State": "Lagos", "LGA": "Lagos Mainland", "HMO Plan": "Plan1" }, "geometry": { "type": "Point", "coordinates": [ 3.3771997, 6.5100747 ] } },
{ "type": "Feature", "properties": { "Name": "Perle Dental Clinic", "Address": "Suite 10 Veterans Plaza, 433 Herbert Macaulay Way, Yaba, Lagos", "State": "Lagos", "LGA": "Lagos Mainland", "HMO Plan": "Plan1" }, "geometry": { "type": "Point", "coordinates": [ 3.3757498, 6.5159459 ] } },
{ "type": "Feature", "properties": { "Name": "Luxe Dental Clinic", "Address": "46 Issac John Ikeja Gra", "State": "Lagos", "LGA": "Ikeja", "HMO Plan": "Plan3" }, "geometry": { "type": "Point", "coordinates": [ 3.3581687, 6.5833162 ] } },
{ "type": "Feature", "properties": { "Name": "Aristoothcrat Dental Clinic", "Address": "25, Salvation Road, Opebi,Ikeja", "State": "Lagos", "LGA": "Ikeja", "HMO Plan": "Plan1" }, "geometry": { "type": "Point", "coordinates": [ 3.3638416, 6.5916799 ] } },
{ "type": "Feature", "properties": { "Name": "Dentified Dental Care", "Address": "13A Methodist Church Street, Awuse Estate, Off Salvation Bus Stop, Ikeja Wasimi/Opebi/Allen Ikeja Lagos Nigeria", "State": "Lagos", "LGA": "Ikeja", "HMO Plan": "Plan1" }, "geometry": { "type": "Point", "coordinates": [ 3.3643139, 6.5892935 ] } },
{ "type": "Feature", "properties": { "Name": "Hygei Dental And Eye Clinic", "Address": "14, Sowemimo Street G.R.A. Ikeja", "State": "Lagos", "LGA": "Ikeja", "HMO Plan": "Plan1" }, "geometry": { "type": "Point", "coordinates": [ 3.3448255, 6.5786194 ] } },
{ "type": "Feature", "properties": { "Name": "Michel Dental Clinic", "Address": "Lagos Printing Corporation Shopping Mall, 133 Obafemi Awolowo Way", "State": "Lagos", "LGA": "Ikeja", "HMO Plan": "Plan1" }, "geometry": { "type": "Point", "coordinates": [ 3.3535529, 6.6120526 ] } },
{ "type": "Feature", "properties": { "Name": "Snowhite Dental Clinic", "Address": "9 Nurudeen Street Anifowoshe Ikeja Lagos", "State": "Lagos", "LGA": "Ikeja", "HMO Plan": "Plan1" }, "geometry": { "type": "Point", "coordinates": [ 3.3385925, 6.5988545 ] } },
{ "type": "Feature", "properties": { "Name": "Building Smiles Dental Clinic", "Address": "70 Opebi Road Ikeja", "State": "Lagos", "LGA": "Ikeja", "HMO Plan": "Plan1" }, "geometry": { "type": "Point", "coordinates": [ 3.3627588, 6.5873497 ] } },
{ "type": "Feature", "properties": { "Name": "Beaconhill Smile Clinic Ikeja", "Address": "50 - 52 Toyin Street Opposite Dominos Pizza,Ikeja", "State": "Lagos", "LGA": "Ikeja", "HMO Plan": "Plan1" }, "geometry": { "type": "Point", "coordinates": [ 3.3525985, 6.5954982 ] } },
{ "type": "Feature", "properties": { "Name": "Teeth City Dental Specialist Clinics", "Address": "18A Eleruwa Street Wemabod Estate Ajao Road Off Adeniyi Jones Avenue Ikeja Lagos", "State": "Lagos", "LGA": "Ikeja", "HMO Plan": "Plan1" }, "geometry": { "type": "Point", "coordinates": [ 3.3404269, 6.60389 ] } },
{ "type": "Feature", "properties": { "Name": "Ivy Dental Services", "Address": "39 Ademiji Street Off Odusami Off Wempco Road Ogba Lagos", "State": "Lagos", "LGA": "Ikeja", "HMO Plan": "Plan1" }, "geometry": { "type": "Point", "coordinates": [ 3.3471172, 6.6314947 ] } },
{ "type": "Feature", "properties": { "Name": "Canan Dental Clinic", "Address": "5A Saegbon Street, Ikeja Gra Lagos", "State": "Lagos", "LGA": "Ikeja", "HMO Plan": "Plan4" }, "geometry": { "type": "Point", "coordinates": [ 3.355136, 6.5790771 ] } },
{ "type": "Feature", "properties": { "Name": "Blanche Dental Clinic", "Address": "7 Joseph Street, Off Opebi Link Road. Ikeja", "State": "Lagos", "LGA": "Ikeja", "HMO Plan": "Plan1" }, "geometry": { "type": "Point", "coordinates": [ 3.3602633, 6.5933824 ] } },
{ "type": "Feature", "properties": { "Name": "Breeze Smile Dental Specialist Clinic", "Address": "70C Allen Avenue Nikky Africana Plaza Ikeja", "State": "Lagos", "LGA": "Ikeja", "HMO Plan": "Plan1" }, "geometry": { "type": "Point", "coordinates": [ 3.352301, 6.6036655 ] } },
{ "type": "Feature", "properties": { "Name": "Vital Hope Dental Clinic", "Address": "Suite 107 Adeniyi Jones, Medplus Pharmacy/Eye Clinic Building, Ikeja", "State": "Lagos", "LGA": "Ikeja", "HMO Plan": "Plan1" }, "geometry": { "type": "Point", "coordinates": [ 3.3456118, 6.6189217 ] } },
{ "type": "Feature", "properties": { "Name": "Orthoplus Dental", "Address": "10 Mobolaji Bank Anthony Way, Maryland, Lagos", "State": "Lagos", "LGA": "Ikeja", "HMO Plan": "Plan4" }, "geometry": { "type": "Point", "coordinates": [ 3.3638951, 6.5727978 ] } },
{ "type": "Feature", "properties": { "Name": "Royash Dental Clinic", "Address": "10, Ogunusi Road, Ogba, Ikeja", "State": "Lagos", "LGA": "Ikeja", "HMO Plan": "Plan1" }, "geometry": { "type": "Point", "coordinates": [ 3.349341, 6.6346267 ] } },
{ "type": "Feature", "properties": { "Name": "Solid Rock Hospital Dental Clinic", "Address": "6 Akinsanya Street, Off Ogunnusi Road, Ojodu, Ikeja", "State": "Lagos", "LGA": "Ikeja", "HMO Plan": "Plan1" }, "geometry": { "type": "Point", "coordinates": [ 3.3632993, 6.6420773 ] } },
{ "type": "Feature", "properties": { "Name": "Ireayo Dental Clinic", "Address": "Builiding Beside Forte Oil Filling Station Opposite Ministry Of Enviroment Awolowo Way Bodija", "State": "Oyo", "LGA": "Ikeja", "HMO Plan": "Plan1" }, "geometry": { "type": "Point", "coordinates": [ 3.3392239, 6.5959083 ] } },
{ "type": "Feature", "properties": { "Name": "Care 32 Dental Clinic", "Address": "15 Osolo Way Airport Road Ajao Estate", "State": "Lagos", "LGA": "Oshodi/Isolo", "HMO Plan": "Plan2" }, "geometry": { "type": "Point", "coordinates": [ 3.3323441, 6.5488918 ] } },
{ "type": "Feature", "properties": { "Name": "Brighthouse Dental And Eye Clinic", "Address": "Divino Plaza , 1 Chivita Avenue , By 2/4 Jay Momoh Street , Ajao Estate", "State": "Lagos", "LGA": "Oshodi/Isolo", "HMO Plan": "Plan1" }, "geometry": { "type": "Point", "coordinates": [ 3.322433, 6.5449446 ] } },
{ "type": "Feature", "properties": { "Name": "Ollyton Dental Clinic", "Address": "3 Awoniyi Elemo Street Ajao Estate. Lagos State", "State": "Lagos", "LGA": "Oshodi/Isolo", "HMO Plan": "Plan1" }, "geometry": { "type": "Point", "coordinates": [ 3.3309069, 6.549911 ] } },
{ "type": "Feature", "properties": { "Name": "Roberts Dental", "Address": "19, Ogunlana Drive, Off Ojulegba Lawanson Road, Surulere", "State": "Lagos", "LGA": "Surulere", "HMO Plan": "Plan1" }, "geometry": { "type": "Point", "coordinates": [ 3.3525721, 6.510068 ] } },
{ "type": "Feature", "properties": { "Name": "Spectrum Dental Surgery", "Address": "18, Olatunde Onimole Str", "State": "Lagos", "LGA": "Surulere", "HMO Plan": "Plan1" }, "geometry": { "type": "Point", "coordinates": [ 3.346114, 6.49357 ] } },
{ "type": "Feature", "properties": { "Name": "Smiley Dental Clinic", "Address": "105 Akerele Street, Surulere", "State": "Lagos", "LGA": "Surulere", "HMO Plan": "Plan1" }, "geometry": { "type": "Point", "coordinates": [ 3.3573517, 6.5039312 ] } },
{ "type": "Feature", "properties": { "Name": "Green Fountain Dental Clinic", "Address": "19 Oyekan Road Off Akerele Ogunlana Drive Surulere", "State": "Lagos", "LGA": "Surulere", "HMO Plan": "Plan3" }, "geometry": { "type": "Point", "coordinates": [ 3.3528287, 6.5050884 ] } },
{ "type": "Feature", "properties": { "Name": "Aire Dental Clinic", "Address": "30 Enitan Street Aguda Surulere, Lagos", "State": "Lagos", "LGA": "Surulere", "HMO Plan": "Plan1" }, "geometry": { "type": "Point", "coordinates": [ 3.3382613, 6.4963274 ] } },
{ "type": "Feature", "properties": { "Name": "Kots Integrated Services", "Address": "104 Ogunlana Drive Surulere", "State": "Lagos", "LGA": "Surulere", "HMO Plan": "Plan1" }, "geometry": { "type": "Point", "coordinates": [ 3.3521358, 6.5060246 ] } },
{ "type": "Feature", "properties": { "Name": "Ihouse Optical And Dental Clinic Ltd Surulere", "Address": "8 Afric Road, Surulere Iopri", "State": "Lagos", "LGA": "Surulere", "HMO Plan": "Plan1" }, "geometry": { "type": "Point", "coordinates": [ 3.348572, 6.498293 ] } },
{ "type": "Feature", "properties": { "Name": "Roperb Dental Clinic", "Address": "47, Adelabu Street, Off Masha Roundabout,", "State": "Lagos", "LGA": "Surulere", "HMO Plan": "Plan1" }, "geometry": { "type": "Point", "coordinates": [ 3.349695, 6.4972502 ] } },
{ "type": "Feature", "properties": { "Name": "Pulpcare Dental", "Address": "No 1 Aderibigbe Street", "State": "Lagos", "LGA": "Surulere", "HMO Plan": "Plan1" }, "geometry": { "type": "Point", "coordinates": [ 3.345287, 6.505529 ] } },
{ "type": "Feature", "properties": { "Name": "Iwosan Dental Clinic", "Address": "73 Itire Road, Surulere", "State": "Lagos", "LGA": "Surulere", "HMO Plan": "Plan1" }, "geometry": { "type": "Point", "coordinates": [ 3.3535302, 6.5123526 ] } },
{ "type": "Feature", "properties": { "Name": "Rabboni Dental", "Address": "House 2 G Close 21 Road Festac Town", "State": "Lagos", "LGA": "Amuwo Odofin", "HMO Plan": "Plan3" }, "geometry": { "type": "Point", "coordinates": [ 3.2824024, 6.4669842 ] } },
{ "type": "Feature", "properties": { "Name": "Toothcom", "Address": "Plot 352 Durbar Road Beside Affordable Place Mile 2 Amuwo Odofin Lagos", "State": "Lagos", "LGA": "Amuwo Odofin", "HMO Plan": "Plan1" }, "geometry": { "type": "Point", "coordinates": [ 3.3090907, 6.4621021 ] } },
{ "type": "Feature", "properties": { "Name": "Sparkle Dental Clinic", "Address": "House 42 On 2Nd Avenue, At 208 Road Bustop, Festac", "State": "Lagos", "LGA": "Amuwo Odofin", "HMO Plan": "Plan1" }, "geometry": { "type": "Point", "coordinates": [ 3.2818048, 6.4702531 ] } },
{ "type": "Feature", "properties": { "Name": "Hilton Dental Services And Consultancy Ltd", "Address": "Blk 14 Plt 221 Chief Sunny Ogbeide Close Diamond Estate Amuwo Odofin Lagos", "State": "Lagos", "LGA": "Amuwo Odofin", "HMO Plan": "Plan1" }, "geometry": { "type": "Point", "coordinates": [ 3.3043539, 6.4676817 ] } },
{ "type": "Feature", "properties": { "Name": "Kopul Dental Clinic", "Address": "Amuwo Odofin Maternal And Child Hospital,First Avenue By First Gate,Festac Town", "State": "Lagos", "LGA": "Amuwo Odofin", "HMO Plan": "Plan1" }, "geometry": { "type": "Point", "coordinates": [ 3.3009839, 6.4599423 ] } },
{ "type": "Feature", "properties": { "Name": "Tooth Angel Dental Clinic", "Address": "14B Bola Sipeade Street, Lakeview Phase 1 Estate, Amuwo Odofin,", "State": "Lagos", "LGA": "Amuwo Odofin", "HMO Plan": "Plan1" }, "geometry": { "type": "Point", "coordinates": [ 3.3001484, 6.4823588 ] } },
{ "type": "Feature", "properties": { "Name": "Whitegold Dental Clinic", "Address": "41, Oyedele Ogunniyi Street, Anthony Village", "State": "Lagos", "LGA": "Kosofe", "HMO Plan": "Plan3" }, "geometry": { "type": "Point", "coordinates": [ 3.3706772, 6.5624497 ] } },
{ "type": "Feature", "properties": { "Name": "Havilla Dental Clinic", "Address": "2B, Ladipo Olukoya Street, Off, Olorunlogbon Street, Anthony, Lagos.", "State": "Lagos", "LGA": "Kosofe", "HMO Plan": "Plan1" }, "geometry": { "type": "Point", "coordinates": [ 3.3704192, 6.5608705 ] } },
{ "type": "Feature", "properties": { "Name": "Dental Plus Limited", "Address": "No 2 Deji Odunuga Street Anthony Village", "State": "Lagos", "LGA": "Kosofe", "HMO Plan": "Plan3" }, "geometry": { "type": "Point", "coordinates": [ 3.3715954, 6.5624247 ] } },
{ "type": "Feature", "properties": { "Name": "Solace Dental Clinics", "Address": "502, Ikorodu Road, Opposite Ecobank, Ketu Bus-Stop Agboyi-Ketu Lcda, Ketu", "State": "Lagos", "LGA": "Kosofe", "HMO Plan": "Plan1" }, "geometry": { "type": "Point", "coordinates": [ 3.3883791, 6.6001398 ] } },
{ "type": "Feature", "properties": { "Name": "Inland Dental Clinic", "Address": "11 12 Bola Owodunni Street Behind Eskay Filling Stattion Alapere Ketu", "State": "Lagos", "LGA": "Kosofe", "HMO Plan": "Plan1" }, "geometry": { "type": "Point", "coordinates": [ 3.3854806, 6.6005855 ] } },
{ "type": "Feature", "properties": { "Name": "Platinum Dental Surgery", "Address": "106, Aladelola Street Ikosi Ketu", "State": "Lagos", "LGA": "Kosofe", "HMO Plan": "Plan1" }, "geometry": { "type": "Point", "coordinates": [ 3.3776501, 6.6091175 ] } },
{ "type": "Feature", "properties": { "Name": "Beyond Smile Dental Clinic", "Address": "99 Demurin Street, Alapere, Ketu", "State": "Lagos", "LGA": "Kosofe", "HMO Plan": "Plan1" }, "geometry": { "type": "Point", "coordinates": [ 3.3949931, 6.5974208 ] } },
{ "type": "Feature", "properties": { "Name": "Signature Smiles Clinic", "Address": "32 Diya Street Gbagada Lagos", "State": "Lagos", "LGA": "Kosofe", "HMO Plan": "Plan1" }, "geometry": { "type": "Point", "coordinates": [ 3.3906091, 6.5539142 ] } },
{ "type": "Feature", "properties": { "Name": "De Favours Dental Clinic", "Address": "118 Ogudu Road Ojota Lagos Beside Ccd Superstore After Eco Bank", "State": "Lagos", "LGA": "Kosofe", "HMO Plan": "Plan1" }, "geometry": { "type": "Point", "coordinates": [ 3.3906485, 6.575564 ] } },
{ "type": "Feature", "properties": { "Name": "De Twist Dental Specialists Clinic", "Address": "Plot 1 Block 21A Abba Saoge Road On Cmd Road, Opp Otedola Bridge, Magodo", "State": "Lagos", "LGA": "Kosofe", "HMO Plan": "Plan1" }, "geometry": { "type": "Point", "coordinates": [ 3.3694419, 6.6117447 ] } },
{ "type": "Feature", "properties": { "Name": "Renay Dental Clinic", "Address": "No 5,Alhaji Amoo Street Off Ogudu Road Ojota Lagos", "State": "Lagos", "LGA": "Kosofe", "HMO Plan": "Plan1" }, "geometry": { "type": "Point", "coordinates": [ 3.383821, 6.5854745 ] } },
{ "type": "Feature", "properties": { "Name": "Oasis Dental Clinic Limited", "Address": "10 Mabinuori Dawodu Street Gbagada Phase1", "State": "Lagos", "LGA": "Shomolu", "HMO Plan": "Plan1" }, "geometry": { "type": "Point", "coordinates": [ 3.3771404, 6.5484834 ] } },
{ "type": "Feature", "properties": { "Name": "Brite Smiles Dental", "Address": "Suite 14 Jabita Court 136 Alake Onile-Ere Crescent Gbagada Phase Ii", "State": "Lagos", "LGA": "Shomolu", "HMO Plan": "Plan4" }, "geometry": { "type": "Point", "coordinates": [ 3.3864783, 6.5460341 ] } },
{ "type": "Feature", "properties": { "Name": "Day Dental Specialists", "Address": "7B Mabinuori Dauda Street, Gbagada", "State": "Lagos", "LGA": "Shomolu", "HMO Plan": "Plan1" }, "geometry": { "type": "Point", "coordinates": [ 3.3774595, 6.5478365 ] } },
{ "type": "Feature", "properties": { "Name": "Dental And Maxillofacial Surgery Clinic", "Address": "Plot 274, Lanre Awolokun, Gbagada Phase 2, Lagos", "State": "Lagos", "LGA": "Shomolu", "HMO Plan": "Plan1" }, "geometry": { "type": "Point", "coordinates": [ 3.3885163, 6.5471173 ] } },
{ "type": "Feature", "properties": { "Name": "R Jolad Dental Clinic", "Address": "No 5, Safuratu Sekoni Street, New Garage, Gbagada, Lagos", "State": "Lagos", "LGA": "Shomolu", "HMO Plan": "Plan1" }, "geometry": { "type": "Point", "coordinates": [ 3.3926182, 6.5480732 ] } },
{ "type": "Feature", "properties": { "Name": "Dental And Maxillofacial Surgery", "Address": "Plot 274, Lanre Awolokun, Gbagada Phase 2, Lagos", "State": "Lagos", "LGA": "Shomolu", "HMO Plan": "Plan1" }, "geometry": { "type": "Point", "coordinates": [ 3.3885163, 6.5471173 ] } },
{ "type": "Feature", "properties": { "Name": "Smile Pride Dental Clinic", "Address": "2A Solanke Street, Odo Eran Bus Stop, Ota", "State": "Ogun", "LGA": "Shomolu", "HMO Plan": "Plan2" }, "geometry": { "type": "Point", "coordinates": [ 3.3866243, 6.5300341 ] } },
{ "type": "Feature", "properties": { "Name": "Odontoville Dental Clinics", "Address": "14 Town Planning Way Ilupeju Lagos", "State": "Lagos", "LGA": "Mushin", "HMO Plan": "Plan4" }, "geometry": { "type": "Point", "coordinates": [ 3.3639659, 6.5571513 ] } },
{ "type": "Feature", "properties": { "Name": "First Consultant Dental Clinic", "Address": "20/22 Ilupeju Bypass, 2Nd Floor, Teju Hospital, Opp Sweet Sensation, Ilupeju Estate", "State": "Lagos", "LGA": "Mushin", "HMO Plan": "Plan1" }, "geometry": { "type": "Point", "coordinates": [ 3.3597387, 6.545338 ] } },
{ "type": "Feature", "properties": { "Name": "Smile Embassy Dental Specialist Clinic", "Address": "190/191 Ikorodu Road, Onipanu", "State": "Lagos", "LGA": "Mushin", "HMO Plan": "Plan1" }, "geometry": { "type": "Point", "coordinates": [ 3.3668797, 6.539484 ] } },
{ "type": "Feature", "properties": { "Name": "Gt Dental Specialist Ltd", "Address": "42 Association Avenue Ilupeju By Obanikoro Busstop Lagos", "State": "Lagos", "LGA": "Mushin", "HMO Plan": "Plan1" }, "geometry": { "type": "Point", "coordinates": [ 3.3665647, 6.5464785 ] } },
{ "type": "Feature", "properties": { "Name": "Finesse Specialist Dental Clinics And Surgery", "Address": "Mufsuf Plaza No 185 Lagos Abeokuta Express Way Iyana Ipaja Bus Stop.", "State": "Lagos", "LGA": "Alimosho", "HMO Plan": "Plan1" }, "geometry": { "type": "Point", "coordinates": [ 3.3012981, 6.6188221 ] } },
{ "type": "Feature", "properties": { "Name": "Ropheka Medical And Dental Hospital", "Address": "14A Olalekan Street Baccry Bus Stop Off Akowonjo Road Akowonjo", "State": "Lagos", "LGA": "Alimosho", "HMO Plan": "Plan2" }, "geometry": { "type": "Point", "coordinates": [ 3.296612, 6.5984268 ] } },
{ "type": "Feature", "properties": { "Name": "Bluecare Dental Clinic", "Address": "63 Oduduwa Street, Oduduwa Bus Stop, Off Governor Road, Ikotun", "State": "Lagos", "LGA": "Alimosho", "HMO Plan": "Plan1" }, "geometry": { "type": "Point", "coordinates": [ 3.2640617, 6.5561115 ] } },
{ "type": "Feature", "properties": { "Name": "Klarity Dental", "Address": "144 Egbeda Idimu Road, Seliat Bus Stop, Egbeda, Lagos, 1St Floor", "State": "Lagos", "LGA": "Alimosho", "HMO Plan": "Plan1" }, "geometry": { "type": "Point", "coordinates": [ 3.287262, 6.58859 ] } },
{ "type": "Feature", "properties": { "Name": "Optimist Dental Clinic", "Address": "147/149, Ekoro Road Popoola Bustop, Abule Egba", "State": "Lagos", "LGA": "Alimosho", "HMO Plan": "Plan1" }, "geometry": { "type": "Point", "coordinates": [ 3.2900585, 6.6446876 ] } },
{ "type": "Feature", "properties": { "Name": "Ihouse Optical And Dental Clinic Ltd", "Address": "Block 35, Plot C Area 4Opic Estate Agbara Beside The Vio Office", "State": "Lagos", "LGA": "Ado Odo/Ota", "HMO Plan": "Plan1" }, "geometry": { "type": "Point", "coordinates": [ 3.1114879, 6.5114449 ] } },
{ "type": "Feature", "properties": { "Name": "Urbane Dental Clinic", "Address": "Inside Amana Hospital, 5 Ilorin Street, Off Ogbomoso Street, Garki Area 8", "State": "Abuja", "LGA": "Municipal Area Council", "HMO Plan": "Plan1" }, "geometry": { "type": "Point", "coordinates": [ 7.4897631, 9.0343298 ] } },
{ "type": "Feature", "properties": { "Name": "Pan Oral Dental Clinics Limited", "Address": "Communal Centre, Nnpc Staff Quarters, Off Ahmadu Bello Way, Area 2, Garki, Abuja", "State": "Abuja", "LGA": "Municipal Area Council", "HMO Plan": "Plan1" }, "geometry": { "type": "Point", "coordinates": [ 7.4692408, 9.0322585 ] } },
{ "type": "Feature", "properties": { "Name": "Bellevue Dental Ltd", "Address": "No 169 Adetokunbo Ademola Crescent, Wuse Ii, Abuja", "State": "Abuja", "LGA": "Municipal Area Council", "HMO Plan": "Plan3" }, "geometry": { "type": "Point", "coordinates": [ 7.4848484, 9.0715906 ] } },
{ "type": "Feature", "properties": { "Name": "Ivory Dental Care Limited", "Address": "Off Gimbya Street Garki Abuja", "State": "Abuja", "LGA": "Municipal Area Council", "HMO Plan": "Plan2" }, "geometry": { "type": "Point", "coordinates": [ 7.5034732, 9.0409626 ] } },
{ "type": "Feature", "properties": { "Name": "Alpha Hills Dental Clinics", "Address": "Plot 22 Algiers Streets, Opp High Court Of Justice, Zone 5, Wuse Abuja", "State": "Abuja", "LGA": "Municipal Area Council", "HMO Plan": "Plan1" }, "geometry": { "type": "Point", "coordinates": [ 7.4590304, 9.0648584 ] } },
{ "type": "Feature", "properties": { "Name": "Royal Specialist Dental Clinic", "Address": "15-21, Alex Ekwueme Way Inside Nisa Hospital P O Box 7320, Wuse, Abuja", "State": "Abuja", "LGA": "Municipal Area Council", "HMO Plan": "Plan1" }, "geometry": { "type": "Point", "coordinates": [ 7.4115661, 9.0676555 ] } },
{ "type": "Feature", "properties": { "Name": "Regal Dental Clinic", "Address": "Gwani Crescent Wuse Zone 4", "State": "Abuja", "LGA": "Municipal Area Council", "HMO Plan": "Plan3" }, "geometry": { "type": "Point", "coordinates": [ 7.472384, 9.0642089 ] } },
{ "type": "Feature", "properties": { "Name": "Dazzle Dental Clinics Limited", "Address": "Inside Amana Hospital, 5 Ilorin Street, Off Ogbomoso Street, Garki Area 8", "State": "Abuja", "LGA": "Municipal Area Council", "HMO Plan": "Plan1" }, "geometry": { "type": "Point", "coordinates": [ 7.4897631, 9.0343298 ] } },
{ "type": "Feature", "properties": { "Name": "Bethel Dental Clinic", "Address": "No 26 Monrovia Street Opposite Nigerian Tulip Turkish International Colleges Wuse 2 Abuja", "State": "Abuja", "LGA": "Municipal Area Council", "HMO Plan": "Plan1" }, "geometry": { "type": "Point", "coordinates": [ 7.4712489, 9.0810371 ] } },
{ "type": "Feature", "properties": { "Name": "Oro Facial Dental Practice Clinic", "Address": "First Floor Ground Square Building Central Business District Abuja", "State": "Abuja", "LGA": "Municipal Area Council", "HMO Plan": "Plan1" }, "geometry": { "type": "Point", "coordinates": [ 7.4894131, 9.0585927 ] } },
{ "type": "Feature", "properties": { "Name": "Oro Facial Dental Practice Clinic", "Address": "First Floor, Cedar Crest Hospital Apo, No 2 Sam Mbakwe Street, Apo Gudu", "State": "Abuja", "LGA": "Municipal Area Council", "HMO Plan": "Plan1" }, "geometry": { "type": "Point", "coordinates": [ 7.487031, 8.9927062 ] } },
{ "type": "Feature", "properties": { "Name": "Oro Facial Dental Practice Clinic", "Address": "Cedar Crest Hospital Gwarinpa, No 10 Sheik Ismail Street, Road 131, 1St Avenue Gwarinpa", "State": "Abuja", "LGA": "Municipal Area Council", "HMO Plan": "Plan1" }, "geometry": { "type": "Point", "coordinates": [ 7.4143726, 9.0937662 ] } },
{ "type": "Feature", "properties": { "Name": "Ideal Dental Services", "Address": "Basement Floor, Ceddi Plaza, Plot 264 Tafawa Balewa Way, Central Are", "State": "Abuja", "LGA": "Municipal Area Council", "HMO Plan": "Plan1" }, "geometry": { "type": "Point", "coordinates": [ 7.4895426, 9.0550646 ] } },
{ "type": "Feature", "properties": { "Name": "2Tshie Dental Clinic", "Address": "Shop 2 Novare Mall, Apo Abuja", "State": "Abuja", "LGA": "Municipal Area Council", "HMO Plan": "Plan1" }, "geometry": { "type": "Point", "coordinates": [ 7.4928501, 8.9847907 ] } },
{ "type": "Feature", "properties": { "Name": "Pure Snow Dental Clinic", "Address": "Diff Medical Centre, No 10 Diff Road, Gudu Abuja", "State": "Abuja", "LGA": "Municipal Area Council", "HMO Plan": "Plan1" }, "geometry": { "type": "Point", "coordinates": [ 7.4740576, 8.9924595 ] } },
{ "type": "Feature", "properties": { "Name": "Blanche Dental Clinic", "Address": "84 Kwame Nkrumah Crescent, Asokoro. Abuja", "State": "Abuja", "LGA": "Municipal Area Council", "HMO Plan": "Plan1" }, "geometry": { "type": "Point", "coordinates": [ 7.5303195, 9.0424685 ] } },
{ "type": "Feature", "properties": { "Name": "Gloxygen Dental Care", "Address": "Plot 148A Opposite Bread And More, First Avenue, Fha, Lugbe, Airport Road, Abuja", "State": "Abuja", "LGA": "Municipal Area Council", "HMO Plan": "Plan1" }, "geometry": { "type": "Point", "coordinates": [ 7.370024, 8.9970957 ] } },
{ "type": "Feature", "properties": { "Name": "Topaz Dental Clinic", "Address": "Prince And Princess Estate, Drive 5 House 29 Abuja", "State": "Abuja", "LGA": "Municipal Area Council", "HMO Plan": "Plan1" }, "geometry": { "type": "Point", "coordinates": [ 7.4519314, 9.0036157 ] } },
{ "type": "Feature", "properties": { "Name": "Bamed Dental Clinic Maitama", "Address": "Nos 2 Limpopo Street Maitama Abuja", "State": "Abuja", "LGA": "Municipal Area Council", "HMO Plan": "Plan1" }, "geometry": { "type": "Point", "coordinates": [ 7.4989661, 9.0933456 ] } },
{ "type": "Feature", "properties": { "Name": "Smile 360 Dental Specialists Abuja Centre", "Address": "5A Nyasa Close, Off Ontario Cresent, Off Mississipi Street, Maitama", "State": "Abuja", "LGA": "Municipal Area Council", "HMO Plan": "Plan4" }, "geometry": { "type": "Point", "coordinates": [ 7.4837197, 9.0889109 ] } },
{ "type": "Feature", "properties": { "Name": "Zoom 36 Dental Clinic Abuja", "Address": "Suite 47, 1St Floor, De Avalon Plaza Ajobe Adeogun Street Utako", "State": "Abuja", "LGA": "Municipal Area Council", "HMO Plan": "Plan1" }, "geometry": { "type": "Point", "coordinates": [ 7.4419665, 9.0685684 ] } },
{ "type": "Feature", "properties": { "Name": "Glow Dental Clinic", "Address": "Highbury Plaza, Gado Nasko Way, Kubwa", "State": "Abuja", "LGA": "Bwari", "HMO Plan": "Plan1" }, "geometry": { "type": "Point", "coordinates": [ 7.3334169, 9.1529086 ] } },
{ "type": "Feature", "properties": { "Name": "Esteem Dental Clinic", "Address": "42, Isiokpo Street D Line", "State": "Rivers", "LGA": "Port-Harcourt", "HMO Plan": "Plan1" }, "geometry": { "type": "Point", "coordinates": [ 7.0044406, 4.8033401 ] } },
{ "type": "Feature", "properties": { "Name": "Best Smilez Dental Clinic", "Address": "4 Nzimiro Street, Old Gra, Port Harcourt", "State": "Rivers", "LGA": "Port-Harcourt", "HMO Plan": "Plan1" }, "geometry": { "type": "Point", "coordinates": [ 7.0058108, 4.7960861 ] } },
{ "type": "Feature", "properties": { "Name": "Bona Dental Clinic Rivers", "Address": "Dr. Peter Odili Road, Port Harcourt", "State": "Rivers", "LGA": "Port-Harcourt", "HMO Plan": "Plan3" }, "geometry": { "type": "Point", "coordinates": [ 7.0437341, 4.7912074 ] } },
{ "type": "Feature", "properties": { "Name": "Smile Evolution Dental Care Clinic", "Address": "No 4,Amadi Ama Layout, Opposite Rainbow Town,Rivers State", "State": "Rivers", "LGA": "Port-Harcourt", "HMO Plan": "Plan1" }, "geometry": { "type": "Point", "coordinates": [ 7.0270746, 4.7989406 ] } },
{ "type": "Feature", "properties": { "Name": "Myra Dental Clinic (Nig) Ltd", "Address": "Close 2, Block 8B, Elekahia Housing Estate Port Harcourt", "State": "Rivers", "LGA": "Port-Harcourt", "HMO Plan": "Plan1" }, "geometry": { "type": "Point", "coordinates": [ 7.0361318, 4.7970828 ] } },
{ "type": "Feature", "properties": { "Name": "Hebgreen Dental Clinic", "Address": "No 19 Afam Street, Off Kaduna Street D/Line Port Harcourt", "State": "Rivers", "LGA": "Port-Harcourt", "HMO Plan": "Plan1" }, "geometry": { "type": "Point", "coordinates": [ 7.0007698, 4.7970796 ] } },
{ "type": "Feature", "properties": { "Name": "Ros Dental Clinic", "Address": "5 Agudama Str, D Line", "State": "Rivers", "LGA": "Port-Harcourt", "HMO Plan": "Plan1" }, "geometry": { "type": "Point", "coordinates": [ 7.006306, 4.803482 ] } },
{ "type": "Feature", "properties": { "Name": "Firstgate Dental Clinic Limited", "Address": "4A Harley Street ,Old Gra", "State": "Rivers", "LGA": "Port-Harcourt", "HMO Plan": "Plan1" }, "geometry": { "type": "Point", "coordinates": [ 7.013179, 4.7781863 ] } },
{ "type": "Feature", "properties": { "Name": "Blossom Dental Clinic And Braces Centre Ltd", "Address": "94 Aba Road Opposite Mtn Office,Garrison Portharcourt", "State": "Rivers State", "LGA": "Port-Harcourt", "HMO Plan": "Plan1" }, "geometry": { "type": "Point", "coordinates": [ 7.0075609, 4.8020813 ] } },
{ "type": "Feature", "properties": { "Name": "Cimbak Dental Clinic", "Address": "15, Ekere Street, Rumuobiakani", "State": "Rivers", "LGA": "Obio/Akpor", "HMO Plan": "Plan1" }, "geometry": { "type": "Point", "coordinates": [ 7.0311565, 4.838443 ] } },
{ "type": "Feature", "properties": { "Name": "Royal Smile Dental Clinic", "Address": "107 Woji Estate Road,Ykc Roundabout,Woji-Portharcourt", "State": "Rivers State", "LGA": "Obio/Akpor", "HMO Plan": "Plan1" }, "geometry": { "type": "Point", "coordinates": [ 7.0579108, 4.8283388 ] } },
{ "type": "Feature", "properties": { "Name": "3J Dental Clinic Ltd", "Address": "Plot 101 East-West Road Rumuodara, Port Harcourt", "State": "Rivers", "LGA": "Obio/Akpor", "HMO Plan": "Plan1" }, "geometry": { "type": "Point", "coordinates": [ 7.0283417, 4.8598478 ] } },
{ "type": "Feature", "properties": { "Name": "Whyteville Dental Clinic", "Address": "No 9 Stadium Road By Novotel Hotel Port Harcourt", "State": "Rivers", "LGA": "Obio/Akpor", "HMO Plan": "Plan1" }, "geometry": { "type": "Point", "coordinates": [ 7.0160485, 4.8351378 ] } },
{ "type": "Feature", "properties": { "Name": "True Smile Dental Clinic", "Address": "No 50 Woji Road Beside Railway Off Old Aba Road Port Harcourt", "State": "Rivers", "LGA": "Obio/Akpor", "HMO Plan": "Plan1" }, "geometry": { "type": "Point", "coordinates": [ 7.0485504, 4.8381476 ] } },
{ "type": "Feature", "properties": { "Name": "Jomas Dental Clinic", "Address": "91 Ada George Between Royal Dynasty Filling Station And Mouka Foam Port Harcourt", "State": "Rivers", "LGA": "Obio/Akpor", "HMO Plan": "Plan1" }, "geometry": { "type": "Point", "coordinates": [ 7.0154028, 4.8311032 ] } },
{ "type": "Feature", "properties": { "Name": "Bolkins Dental Clinic Port Harcourt", "Address": "3Rd Floor Prime Medical Consultants 4, Prime Close Ph", "State": "Rivers", "LGA": "Obio/Akpor", "HMO Plan": "Plan1" }, "geometry": { "type": "Point", "coordinates": [ 7.0336316, 4.8471133 ] } },
{ "type": "Feature", "properties": { "Name": "Pretty Smile Dental Clinic Ltd", "Address": "Nta/Choba Road, Ozuoba By Bakery Junction", "State": "Rivers", "LGA": "Obio/Akpor", "HMO Plan": "Plan1" }, "geometry": { "type": "Point", "coordinates": [ 6.9526658, 4.8692753 ] } },
{ "type": "Feature", "properties": { "Name": "Zoom 36 Dental Care", "Address": "1 Opobo Crescent,New Gra", "State": "Rivers", "LGA": "Obio/Akpor", "HMO Plan": "Plan1" }, "geometry": { "type": "Point", "coordinates": [ 7.0023075, 4.824006 ] } },
{ "type": "Feature", "properties": { "Name": "Cutesmile Dental Care Limited", "Address": "29 Rumuadolu Rumuola Road,Portharcourt", "State": "Rivers", "LGA": "Obio/Akpor", "HMO Plan": "Plan1" }, "geometry": { "type": "Point", "coordinates": [ 6.9960352, 4.8332614 ] } },
{ "type": "Feature", "properties": { "Name": "Starlyke Dental Clinic", "Address": "443 Ikwerre Road,Kala Bus Stop", "State": "Rivers State", "LGA": "Obio/Akpor", "HMO Plan": "Plan1" }, "geometry": { "type": "Point", "coordinates": [ 6.985367, 4.8345159 ] } },
{ "type": "Feature", "properties": { "Name": "Gilgal Dental Center", "Address": "7 Ihama Road, Gra, Benin City", "State": "Benin", "LGA": "Oredo", "HMO Plan": "Plan1" }, "geometry": { "type": "Point", "coordinates": [ 5.6115872, 6.313433 ] } },
{ "type": "Feature", "properties": { "Name": "Gilgal Dental Center", "Address": "15 Ihama Road", "State": "Edo", "LGA": "Oredo", "HMO Plan": "Plan1" }, "geometry": { "type": "Point", "coordinates": [ 5.6119401, 6.3134748 ] } },
{ "type": "Feature", "properties": { "Name": "Rainbow Dental Clinic", "Address": "5A Igun Street, Off Sakponba Road", "State": "Edo", "LGA": "Oredo", "HMO Plan": "Plan3" }, "geometry": { "type": "Point", "coordinates": [ 5.6250826, 6.3322942 ] } },
{ "type": "Feature", "properties": { "Name": "True Smiles Dental Clinic", "Address": "27 New Road Opposite Finima Girls Secondary School, Bonny Island", "State": "Rivers", "LGA": "Bonny", "HMO Plan": "Plan1" }, "geometry": { "type": "Point", "coordinates": [ 7.1763322, 4.3913911 ] } },
{ "type": "Feature", "properties": { "Name": "Teem Clinic And Dental Center", "Address": "45 Nnpc Housing Complex Road, Warri", "State": "Delta", "LGA": "Uvwie", "HMO Plan": "Plan2" }, "geometry": { "type": "Point", "coordinates": [ 5.742919, 5.5541872 ] } },
{ "type": "Feature", "properties": { "Name": "Dentoba Dental Clinic", "Address": "No 7 Obada Close Off Refinery Road By Hotel Excel Effurun Delta State", "State": "Delta", "LGA": "Uvwie", "HMO Plan": "Plan1" }, "geometry": { "type": "Point", "coordinates": [ 5.7489331, 5.5680395 ] } },
{ "type": "Feature", "properties": { "Name": "Labelle Dental Clinic", "Address": "No 59 Hospital Road Ekpan Warri", "State": "Delta", "LGA": "Uvwie", "HMO Plan": "Plan1" }, "geometry": { "type": "Point", "coordinates": [ 5.753887, 5.5642151 ] } },
{ "type": "Feature", "properties": { "Name": "Favcov Dental Clinic", "Address": "No 72 Ugberikoko Road Inside Ikanone Estate Off Gana", "State": "Delta", "LGA": "Sapele", "HMO Plan": "Plan1" }, "geometry": { "type": "Point", "coordinates": [ 5.6239089, 5.8981947 ] } },
{ "type": "Feature", "properties": { "Name": "Blue Cross Dental Clinic", "Address": "No 2 Nneka Nwachukwu Close Of Amb Leo Okogwu Str. Asaba", "State": "Delta", "LGA": "Oshimili South", "HMO Plan": "Plan1" }, "geometry": { "type": "Point", "coordinates": [ 6.6958939, 6.2059295 ] } },
{ "type": "Feature", "properties": { "Name": "Beam Dental Clinic", "Address": "21 Udu Road Opposite Udu Motor Park Shop 3, Delta Mall", "State": "Delta", "LGA": "Udu", "HMO Plan": "Plan1" }, "geometry": { "type": "Point", "coordinates": [ 5.7846566, 5.5089155 ] } },
{ "type": "Feature", "properties": { "Name": "Galaxy Dental Centre", "Address": "11A Wetheral Road,Opposite Finca Microfinance Bank", "State": "Imo", "LGA": "Owerri Municipal", "HMO Plan": "Plan1" }, "geometry": { "type": "Point", "coordinates": [ 7.0349345, 5.4919535 ] } },
{ "type": "Feature", "properties": { "Name": "Christain Dental Clinic", "Address": "24 Azikiwe Road, Umuahia", "State": "Abia", "LGA": "Umuahia North", "HMO Plan": "Plan1" }, "geometry": { "type": "Point", "coordinates": [ 7.49612, 5.5262234 ] } },
{ "type": "Feature", "properties": { "Name": "Dr Cole Perfect Smile Dental Clinic", "Address": "291 Aba Owerri Road, Abayi Aba Umueze Ii Osisioma Ngwa Abia", "State": "Abia", "LGA": "Osisioma Ngwa", "HMO Plan": "Plan1" }, "geometry": { "type": "Point", "coordinates": [ 7.3337022, 5.1457469 ] } },
{ "type": "Feature", "properties": { "Name": "Austine Graces Dental Clinic", "Address": "16 Umunachi Street, New Haven, Enugu", "State": "Enugu", "LGA": "Enugu North", "HMO Plan": "Plan3" }, "geometry": { "type": "Point", "coordinates": [ 7.5298046, 6.4573563 ] } },
{ "type": "Feature", "properties": { "Name": "Kappa Dental Services Limited", "Address": "6B Amawubia Close New Haven,Enugu", "State": "Enugu", "LGA": "Enugu North", "HMO Plan": "Plan1" }, "geometry": { "type": "Point", "coordinates": [ 7.5260781, 6.4599886 ] } },
{ "type": "Feature", "properties": { "Name": "Pearl Dental And Braces Centre", "Address": "1 Imperial Hospital Drive, China Town Bus Stop, Ogui, Enugu", "State": "Enugu", "LGA": "Enugu North", "HMO Plan": "Plan1" }, "geometry": { "type": "Point", "coordinates": [ 7.5098341, 6.4206766 ] } },
{ "type": "Feature", "properties": { "Name": "Mendith Dental And Surgery", "Address": "29B Afaha Eket Road, Eket", "State": "Akwa Ibom", "LGA": "Eket", "HMO Plan": "Plan1" }, "geometry": { "type": "Point", "coordinates": [ 7.9246477, 4.637029 ] } },
{ "type": "Feature", "properties": { "Name": "Smile Well Dental Clinic Limited", "Address": "No 405 Oron Road, By Dan Bassey Street Mbiabong Uyo", "State": "Akwa Ibom", "LGA": "Uyo", "HMO Plan": "Plan1" }, "geometry": { "type": "Point", "coordinates": [ 7.9532708, 4.9965661 ] } },
{ "type": "Feature", "properties": { "Name": "Sozo Dunamis Dental Clinic", "Address": "45 Uruan Street, Off Nwaniba Road Uyo", "State": "Akwa-Ibom State", "LGA": "Uyo", "HMO Plan": "Plan1" }, "geometry": { "type": "Point", "coordinates": [ 7.9435291, 5.0271467 ] } },
{ "type": "Feature", "properties": { "Name": "Vincitore Dental Clinic", "Address": "96 Mcc Road,Calabar", "State": "Cross River", "LGA": "Calabar Municipal", "HMO Plan": "Plan1" }, "geometry": { "type": "Point", "coordinates": [ 8.346783, 4.9944527 ] } },
{ "type": "Feature", "properties": { "Name": "Bozid Dental Clinic", "Address": "Suite S8 Josbeed Mall Ashi-Bodija Road Ibadan", "State": "Oyo", "LGA": "Ibadan North", "HMO Plan": "Plan1" }, "geometry": { "type": "Point", "coordinates": [ 3.9267425, 7.4273701 ] } },
{ "type": "Feature", "properties": { "Name": "Tos Dental Clinic", "Address": "53 Oyo Road Mokola", "State": "Oyo", "LGA": "Ibadan North", "HMO Plan": "Plan1" }, "geometry": { "type": "Point", "coordinates": [ 3.8896899, 7.4050561 ] } },
{ "type": "Feature", "properties": { "Name": "Graceton Dental", "Address": "8 Adeyi Avenue,Off Awolowo Road, Bodija Ibadan", "State": "Oyo", "LGA": "Ibadan North", "HMO Plan": "Plan1" }, "geometry": { "type": "Point", "coordinates": [ 3.9062082, 7.4149545 ] } },
{ "type": "Feature", "properties": { "Name": "Fortune Hospital Dental Clinic", "Address": "32, Mko Abiola Way, Anfaani Roundabout, Ring Road, Ibadan", "State": "Oyo", "LGA": "Ibadan South West", "HMO Plan": "Plan1" }, "geometry": { "type": "Point", "coordinates": [ 3.8753148, 7.3519618 ] } },
{ "type": "Feature", "properties": { "Name": "Emmanuel Specialists Hospital Ile Ife", "Address": "E27 Obayemi Street, Agborogboro Layout, Oranfe, Ilesha Road, Ile-Ife", "State": "Osun", "LGA": "Ife Central", "HMO Plan": "Plan1" }, "geometry": { "type": "Point", "coordinates": [ 4.5750561, 7.5030653 ] } },
{ "type": "Feature", "properties": { "Name": "Ridgecrest Dental Clinic Ltd", "Address": "Suite 12, Rot-Kay Modern Shopping Complex, Opposite Oauthc Phase 1 Gate, Ile-Ife, Osun State, Nigeria", "State": "Osun", "LGA": "Ife Central", "HMO Plan": "Plan1" }, "geometry": { "type": "Point", "coordinates": [ 4.5715185, 7.502533 ] } },
{ "type": "Feature", "properties": { "Name": "Dentogad Specialist Dental Clinic", "Address": "2Nd Floor Iyeoma Plaza, Alagbaka, Akure", "State": "Ondo", "LGA": "Akure North", "HMO Plan": "Plan1" }, "geometry": { "type": "Point", "coordinates": [ 5.2196942, 7.2553359 ] } },
{ "type": "Feature", "properties": { "Name": "Orange Dental Specialist", "Address": "Captain Cook Building Alagbaka Akure Ondo State", "State": "Ondo", "LGA": "Ifedore", "HMO Plan": "Plan1" }, "geometry": { "type": "Point", "coordinates": [ 5.2136199, 7.2525132 ] } },
{ "type": "Feature", "properties": { "Name": "Capstone Lunar Hospital", "Address": "11,Bebind Iblar Filling Station Off Taiwo Road Ilorin", "State": "Kwara", "LGA": "Ilorin West", "HMO Plan": "Plan1" }, "geometry": { "type": "Point", "coordinates": [ 4.5381463, 8.4788013 ] } },
{ "type": "Feature", "properties": { "Name": "Blessed Dental Clinic Ilorin", "Address": "Opposite Ist Bank Omosebi Junction Ajase- Ipo Road Pffa Garbage Area Ilorin", "State": "Kwara", "LGA": "Ilorin South", "HMO Plan": "Plan1" }, "geometry": { "type": "Point", "coordinates": [ 4.5443923, 8.5373356 ] } },
{ "type": "Feature", "properties": { "Name": "Access Oral Healthcare Services", "Address": "1 Ogo Oluwa Bankole Crescent Ibara Housing Estate, Abeokuta South", "State": "Ogun", "LGA": "Abeokuta South", "HMO Plan": "Plan1" }, "geometry": { "type": "Point", "coordinates": [ 3.338262, 7.1300013 ] } },
{ "type": "Feature", "properties": { "Name": "Prestige Specialist Dental Clinic", "Address": "First Floor Dorcas Plaza Opp Treasure House Of God Church Agbeloba Abeokuta", "State": "Ogun", "LGA": "Abeokuta North", "HMO Plan": "Plan1" }, "geometry": { "type": "Point", "coordinates": [ 3.3221706, 7.1383347 ] } },
{ "type": "Feature", "properties": { "Name": "Ss Dental Limited", "Address": "The Jericho Mall,20 Kudeti Avenue,Onireke Gra,Ibadan", "State": "Oyo", "LGA": "Ibadan North West", "HMO Plan": "Plan1" }, "geometry": { "type": "Point", "coordinates": [ 3.8750262, 7.4000932 ] } },
{ "type": "Feature", "properties": { "Name": "The Smile Shop", "Address": "Suite 8,Baba Plaza.Audu Bako Way,Kano", "State": "Kano", "LGA": "Nassarawa", "HMO Plan": "Plan1" }, "geometry": { "type": "Point", "coordinates": [ 8.5448548, 11.9931785 ] } },
{ "type": "Feature", "properties": { "Name": "Amisal Dental Care", "Address": "No 1 Nasarawa Hospital Road Kano", "State": "Kano", "LGA": "Nassarawa", "HMO Plan": "Plan1" }, "geometry": { "type": "Point", "coordinates": [ 8.5488071, 11.9978137 ] } },
{ "type": "Feature", "properties": { "Name": "Day Crystal Clinic And Maternity", "Address": "6A Makera Road Kakuri Kaduna", "State": "Kaduna", "LGA": "Kaduna North", "HMO Plan": "Plan1" }, "geometry": { "type": "Point", "coordinates": [ 7.4287285, 10.5108477 ] } },
{ "type": "Feature", "properties": { "Name": "Ibidave Dental Clinic", "Address": "Hht Fatima Plaza Katsina Road Kaduna", "State": "Kaduna", "LGA": "Kaduna North", "HMO Plan": "Plan1" }, "geometry": { "type": "Point", "coordinates": [ 7.4340454, 10.5127264 ] } },
{ "type": "Feature", "properties": { "Name": "Excelle Dental Clinic Kaduna", "Address": "Suite 2 Asd City Mall, Independence Way By Katsina Road Junction Kaduna", "State": "Kaduna", "LGA": "Kaduna North", "HMO Plan": "Plan1" }, "geometry": { "type": "Point", "coordinates": [ 7.4405698, 10.5140186 ] } },
{ "type": "Feature", "properties": { "Name": "Sparkle Dental Clinic Kaduna", "Address": "Aquf Plaza, No2 Shehu Laminu Road Ugwarimi Kaduna State", "State": "Kaduna", "LGA": "Kajuru", "HMO Plan": "Plan1" }, "geometry": { "type": "Point", "coordinates": [ 7.7094537, 10.3764006 ] } },
{ "type": "Feature", "properties": { "Name": "Friendly Dental Care", "Address": "No 4 Along Shehu Laminu Way, Opposite Danjuma International Hotel, Old Gra Maiduguri", "State": "Borno", "LGA": "Maiduguri", "HMO Plan": "Plan1" }, "geometry": { "type": "Point", "coordinates": [ 13.1509672, 11.8310981 ] } },
{ "type": "Feature", "properties": { "Name": "Bluehills Dental Clinic", "Address": "Suite 40/41 Powa Shopping Complex, Jos Road, Lafia", "State": "Nasarawa", "LGA": "Lafia", "HMO Plan": "Plan1" }, "geometry": { "type": "Point", "coordinates": [ 8.5226706, 8.5060115 ] } },
{ "type": "Feature", "properties": { "Name": "Vip Dental Clinic Ltd", "Address": "No 1 D.B Zang Way, By Hill Station Roundabout, Jos Gra", "State": "Plateau", "LGA": "Jos North", "HMO Plan": "Plan1" }, "geometry": { "type": "Point", "coordinates": [ 8.8583309, 9.8965273 ] } },
{ "type": "Feature", "properties": { "Name": "Emory Specialist Hospital Markudi", "Address": "124 Abuking Shiluna Road, Near E Division Police Station, Akpehe Road, Markudi, Benue State", "State": "Benue", "LGA": "Makurdi", "HMO Plan": "Plan1" }, "geometry": { "type": "Point", "coordinates": [ 8.539144, 7.7321516 ] } },
{ "type": "Feature", "properties": { "Name": "Bezaleel Specialist Clinic", "Address": "8Th Avenue, Iorkyaa Akor Street, High Level, Makurdi", "State": "Benue", "LGA": "Makurdi", "HMO Plan": "Plan1" }, "geometry": { "type": "Point", "coordinates": [ 8.5254159, 7.7135987 ] } },
{ "type": "Feature", "properties": { "Name": "Peace Dental Clinic Yola", "Address": "Bishop Street, Opposite Peace Hospital, Jimeta-Yola", "State": "Adamawa", "LGA": "Yola South", "HMO Plan": "Plan1" }, "geometry": { "type": "Point", "coordinates": [ 12.4953899, 9.2034963 ] } },
{ "type": "Feature", "properties": { "Name": "Kingsword Dental Clinic", "Address": "No 1, Oyeyemi Street Akute-Ajuwon Road. Akute", "State": "Ogun", "LGA": "Ifo", "HMO Plan": "Plan1" }, "geometry": { "type": "Point", "coordinates": [ 3.3579136, 6.6780403 ] } },
{ "type": "Feature", "properties": { "Name": "Royal Dental And Maxilofacial Clinic", "Address": "Abdullahi Fodio Road, Sokoto", "State": "Sokoto", "LGA": "Sokoto North", "HMO Plan": "Plan1" }, "geometry": { "type": "Point", "coordinates": [ 5.2176074, 13.0680234 ] } }
]
}
