{
"type": "FeatureCollection",
"name": "Optical_Clinics",
"crs": { "type": "name", "properties": { "name": "urn:ogc:def:crs:OGC:1.3:CRS84" } },
"features": [
{ "type": "Feature", "properties": { "Unnamed: 0": 0, "Name": "Premiere Eye Centre", "Address": "290 A, Ajose Adeogun Street, Vi", "State": "Lagos", "lga_name_x": "Eti Osa", "HMO Plan": "Plan1" }, "geometry": { "type": "Point", "coordinates": [ 3.4375692, 6.4311575 ] } },
{ "type": "Feature", "properties": { "Unnamed: 0": 1, "Name": "Acuview Nigeria Limited", "Address": "Nurses House 43,Afribank Street,1St Floor Opp Total,Victoria Island", "State": "Lagos", "lga_name_x": "Eti Osa", "HMO Plan": "Plan1" }, "geometry": { "type": "Point", "coordinates": [ 3.4238032, 6.4290982 ] } },
{ "type": "Feature", "properties": { "Unnamed: 0": 2, "Name": "Perfect Eyes", "Address": "33 Kofo Abayomi, Opposite Hartley'S Supermarket, Victoria Island", "State": "Lagos", "lga_name_x": "Eti Osa", "HMO Plan": "Plan1" }, "geometry": { "type": "Point", "coordinates": [ 3.4219444, 6.4280556 ] } },
{ "type": "Feature", "properties": { "Unnamed: 0": 3, "Name": "Sightcity Limited", "Address": "Fmda Building, Plot 1398B Tiamiyu Savage Street, Opposite Main Dstv Office, Victoria Island. Lagos", "State": "Lagos", "lga_name_x": "Eti Osa", "HMO Plan": "Plan1" }, "geometry": { "type": "Point", "coordinates": [ 3.4267119, 6.4250598 ] } },
{ "type": "Feature", "properties": { "Unnamed: 0": 4, "Name": "The Eye Doctor", "Address": "Plot 241B Muri Okunola Street, Victoria Island, Lagos", "State": "Lagos", "lga_name_x": "Eti Osa", "HMO Plan": "Plan3" }, "geometry": { "type": "Point", "coordinates": [ 3.4359529, 6.4318359 ] } },
{ "type": "Feature", "properties": { "Unnamed: 0": 5, "Name": "Radiant Professional Eye Care Centre", "Address": "33, Sinari Daranijo Street", "State": "Lagos", "lga_name_x": "Eti Osa", "HMO Plan": "Plan1" }, "geometry": { "type": "Point", "coordinates": [ 3.4368501, 6.4288166 ] } },
{ "type": "Feature", "properties": { "Unnamed: 0": 6, "Name": "Eliora Rose Eye Care", "Address": "45A Saka Tinubu Street, Victoria Island", "State": "Lagos", "lga_name_x": "Eti Osa", "HMO Plan": "Plan3" }, "geometry": { "type": "Point", "coordinates": [ 3.4233887, 6.4272117 ] } },
{ "type": "Feature", "properties": { "Unnamed: 0": 7, "Name": "Swift Eyecare Limited", "Address": "Plot 1205, Amodu Ojikutu Street, Off Bishop Oluwole Street, Victoria Island", "State": "Lagos", "lga_name_x": "Eti Osa", "HMO Plan": "Plan3" }, "geometry": { "type": "Point", "coordinates": [ 3.4192475, 6.4252963 ] } },
{ "type": "Feature", "properties": { "Unnamed: 0": 8, "Name": "Truvision Limited", "Address": "84, Ozumba Mbadiwe Avenue, Oniru", "State": "Lagos", "lga_name_x": "Eti Osa", "HMO Plan": "Plan1" }, "geometry": { "type": "Point", "coordinates": [ 3.4181911, 6.4365859 ] } },
{ "type": "Feature", "properties": { "Unnamed: 0": 9, "Name": "Vision Capital Eye Hospital Victoria Island", "Address": "Plot 1438 Sanusi Fafunwa Victoria Island Lagos", "State": "Lagos", "lga_name_x": "Eti Osa", "HMO Plan": "Plan1" }, "geometry": { "type": "Point", "coordinates": [ 3.4257767, 6.4313637 ] } },
{ "type": "Feature", "properties": { "Unnamed: 0": 10, "Name": "Cronnet Eye Clinic", "Address": "No 299 Akin Olugbade Street Off Idowu Martins Victoria Island", "State": "Lagos", "lga_name_x": "Eti Osa", "HMO Plan": "Plan1" }, "geometry": { "type": "Point", "coordinates": [ 3.4198838, 6.4311612 ] } },
{ "type": "Feature", "properties": { "Unnamed: 0": 11, "Name": "Standard Optical Ltd", "Address": "141 Ahmadu Bello Way Victoria Island", "State": "Lagos", "lga_name_x": "Eti Osa", "HMO Plan": "Plan2" }, "geometry": { "type": "Point", "coordinates": [ 3.423534, 6.4235153 ] } },
{ "type": "Feature", "properties": { "Unnamed: 0": 12, "Name": "The Eyelanders Clinic", "Address": "No 17 Ahmed Onibudo Off Adeola Hopewell,Victoria Island", "State": "Lagos", "lga_name_x": "Eti Osa", "HMO Plan": "Plan1" }, "geometry": { "type": "Point", "coordinates": [ 3.4090055, 6.4282223 ] } },
{ "type": "Feature", "properties": { "Unnamed: 0": 14, "Name": "Pro Optics", "Address": "Plot 141B, Olabode George Street, Off Ajose Adeogun Street, Victoria Island", "State": "Lagos", "lga_name_x": "Eti Osa", "HMO Plan": "Plan3" }, "geometry": { "type": "Point", "coordinates": [ 3.4382705, 6.4296315 ] } },
{ "type": "Feature", "properties": { "Unnamed: 0": 15, "Name": "Visio Eyecare Plus", "Address": "12 Anifowoshe Street, Off Adeola Odeku Street", "State": "Lagos", "lga_name_x": "Eti Osa", "HMO Plan": "Plan3" }, "geometry": { "type": "Point", "coordinates": [ 3.4149411, 6.4314657 ] } },
{ "type": "Feature", "properties": { "Unnamed: 0": 16, "Name": "Choice Optical And Surgical Services Limited Victoria Island", "Address": "39 Adeola Odeku, 2 Stops Before Hubmart Victoria Island", "State": "Lagos", "lga_name_x": "Eti Osa", "HMO Plan": "Plan1" }, "geometry": { "type": "Point", "coordinates": [ 3.4172731, 6.4308854 ] } },
{ "type": "Feature", "properties": { "Unnamed: 0": 17, "Name": "Skipper Eye Q Super Speciality Eye Hospital", "Address": "Plot 698 Sanusi Fafunwa Street Victoria Island Lagos", "State": "Lagos", "lga_name_x": "Eti Osa", "HMO Plan": "Plan2" }, "geometry": { "type": "Point", "coordinates": [ 3.4272154, 6.4313755 ] } },
{ "type": "Feature", "properties": { "Unnamed: 0": 18, "Name": "Dunamis Eye Centre", "Address": "Suite 7 First Floor, Management House (Nim), Plot 22 Idowu Taylor Street", "State": "Lagos", "lga_name_x": "Eti Osa", "HMO Plan": "Plan1" }, "geometry": { "type": "Point", "coordinates": [ 3.4270825, 6.4334794 ] } },
{ "type": "Feature", "properties": { "Unnamed: 0": 19, "Name": "The Eye Shop Africa International Limited", "Address": "3Rd Floor Mega Plaza Idowu Martins Street Vi", "State": "Lagos", "lga_name_x": "Eti Osa", "HMO Plan": "Plan1" }, "geometry": { "type": "Point", "coordinates": [ 3.4205211, 6.4333023 ] } },
{ "type": "Feature", "properties": { "Unnamed: 0": 20, "Name": "Visioncraft Eye Clinic", "Address": "4 Adeola Odeku Street, Vi", "State": "Lagos", "lga_name_x": "Eti Osa", "HMO Plan": "Plan1" }, "geometry": { "type": "Point", "coordinates": [ 3.410009, 6.4298434 ] } },
{ "type": "Feature", "properties": { "Unnamed: 0": 21, "Name": "Vision Aids Eye Clinic", "Address": "Plot 1378D Karimu Kotun Street, Victoria Island", "State": "Lagos", "lga_name_x": "Eti Osa", "HMO Plan": "Plan1" }, "geometry": { "type": "Point", "coordinates": [ 3.4256219, 6.4287836 ] } },
{ "type": "Feature", "properties": { "Unnamed: 0": 22, "Name": "Eye Foundation Hospital", "Address": "Plot 15, The Providence Street, Lekki Phase", "State": "Lagos", "lga_name_x": "Eti Osa", "HMO Plan": "Plan4" }, "geometry": { "type": "Point", "coordinates": [ 3.4645691, 6.431453 ] } },
{ "type": "Feature", "properties": { "Unnamed: 0": 23, "Name": "Boost Opticals Ltd", "Address": "Suite H, Ikota Shopping Complex Vgc", "State": "Lagos", "lga_name_x": "Eti Osa", "HMO Plan": "Plan1" }, "geometry": { "type": "Point", "coordinates": [ 3.537304, 6.4644928 ] } },
{ "type": "Feature", "properties": { "Unnamed: 0": 24, "Name": "Eye Masters Lekki", "Address": "Plot 35 Freedom Way, Off Admiralty Way, By Ikate Roundabout, Lekki Phase 1", "State": "Lagos", "lga_name_x": "Eti Osa", "HMO Plan": "Plan1" }, "geometry": { "type": "Point", "coordinates": [ 3.481478, 6.43298 ] } },
{ "type": "Feature", "properties": { "Unnamed: 0": 25, "Name": "Phoenix Eye Clinic", "Address": "Km 17, Lekki Epe Expressway", "State": "Lagos", "lga_name_x": "Eti Osa", "HMO Plan": "Plan3" }, "geometry": { "type": "Point", "coordinates": [ 3.5095758, 6.4369917 ] } },
{ "type": "Feature", "properties": { "Unnamed: 0": 26, "Name": "Hephzibah Eye Care", "Address": "Admiralty Way, Opposite First Bank, Lekki Phase 1 Lagos", "State": "Lagos", "lga_name_x": "Eti Osa", "HMO Plan": "Plan1" }, "geometry": { "type": "Point", "coordinates": [ 3.4670381, 6.4475067 ] } },
{ "type": "Feature", "properties": { "Unnamed: 0": 27, "Name": "Krystal Optical Services", "Address": "B295 Ikota Shopping Complex By Vgc Lagos", "State": "Lagos", "lga_name_x": "Eti Osa", "HMO Plan": "Plan1" }, "geometry": { "type": "Point", "coordinates": [ 3.5433199, 6.462051 ] } },
{ "type": "Feature", "properties": { "Unnamed: 0": 28, "Name": "Porters House Eye Clinic", "Address": "Brassars Place 69 Admiralty Way Beside Ebeano Supermarket Lekki Phase 1", "State": "Lagos", "lga_name_x": "Eti Osa", "HMO Plan": "Plan2" }, "geometry": { "type": "Point", "coordinates": [ 3.471963, 6.4474098 ] } },
{ "type": "Feature", "properties": { "Unnamed: 0": 29, "Name": "Eagle Vision Eye Care Centre", "Address": "Plot 1A, Block 124 T.F Kuboye Street Lekki Lagos", "State": "Lagos", "lga_name_x": "Eti Osa", "HMO Plan": "Plan1" }, "geometry": { "type": "Point", "coordinates": [ 3.4646387, 6.4294025 ] } },
{ "type": "Feature", "properties": { "Unnamed: 0": 30, "Name": "The Ocular Centre", "Address": "9 Anthony Etukudo Street Off Niyi Okunubi Street Lekki Phase 1", "State": "Lagos", "lga_name_x": "Eti Osa", "HMO Plan": "Plan1" }, "geometry": { "type": "Point", "coordinates": [ 3.4563548, 6.4395801 ] } },
{ "type": "Feature", "properties": { "Unnamed: 0": 31, "Name": "Icare Family Vision", "Address": "7 Niyi Okunubi Street Lekki 1", "State": "Lagos", "lga_name_x": "Eti Osa", "HMO Plan": "Plan1" }, "geometry": { "type": "Point", "coordinates": [ 3.4576415, 6.4387538 ] } },
{ "type": "Feature", "properties": { "Unnamed: 0": 32, "Name": "Cleveland Opticals", "Address": "View Point Plaza, Nepa Road, Opposite Jubilee Bridge, Ajah Junction, Lekki/Epe Expressway", "State": "Lagos", "lga_name_x": "Eti Osa", "HMO Plan": "Plan1" }, "geometry": { "type": "Point", "coordinates": [ 3.5669281, 6.4694639 ] } },
{ "type": "Feature", "properties": { "Unnamed: 0": 33, "Name": "Visions Opticals", "Address": "The Palms Shopping Mall, 1 Bis Way, Oniru, Lekki", "State": "Lagos", "lga_name_x": "Eti Osa", "HMO Plan": "Plan1" }, "geometry": { "type": "Point", "coordinates": [ 3.4516297, 6.4357545 ] } },
{ "type": "Feature", "properties": { "Unnamed: 0": 34, "Name": "Oculus Pro Clinic Limited", "Address": "Matis Brass Mall 27/28 Castle Rock Avenue, Osapa London Lekki", "State": "Lagos", "lga_name_x": "Eti Osa", "HMO Plan": "Plan3" }, "geometry": { "type": "Point", "coordinates": [ 3.5081606, 6.4439906 ] } },
{ "type": "Feature", "properties": { "Unnamed: 0": 35, "Name": "Haven Opticals", "Address": "D Cherub Mall, Suite A9/10. Lekki-Epe Expressway, Opp Alpha Beach Junction, Lekki", "State": "Lagos", "lga_name_x": "Eti Osa", "HMO Plan": "Plan1" }, "geometry": { "type": "Point", "coordinates": [ 3.5782956, 6.4696852 ] } },
{ "type": "Feature", "properties": { "Unnamed: 0": 36, "Name": "Healthrite Company Ltd Eye Care Centre", "Address": "Lake View Park 1 Estate, Lekki-Epe Expressway, Lekki", "State": "Lagos", "lga_name_x": "Eti Osa", "HMO Plan": "Plan1" }, "geometry": { "type": "Point", "coordinates": [ 3.5591997, 6.4631362 ] } },
{ "type": "Feature", "properties": { "Unnamed: 0": 37, "Name": "Medricvision", "Address": "9 Kudirat Salami Str, Agungi", "State": "Lagos", "lga_name_x": "Eti Osa", "HMO Plan": "Plan1" }, "geometry": { "type": "Point", "coordinates": [ 3.5152543, 6.4413919 ] } },
{ "type": "Feature", "properties": { "Unnamed: 0": 38, "Name": "Poise Eye Care", "Address": "3B Emma Abimbola Cole. Lekki Phase 1", "State": "Lagos", "lga_name_x": "Eti Osa", "HMO Plan": "Plan1" }, "geometry": { "type": "Point", "coordinates": [ 3.4736867, 6.4423235 ] } },
{ "type": "Feature", "properties": { "Unnamed: 0": 39, "Name": "Neurocept Eye Clinic", "Address": "45 Lekki Epe Expressway United Estate Bus Stop Paris Plaza", "State": "Lagos", "lga_name_x": "Eti Osa", "HMO Plan": "Plan1" }, "geometry": { "type": "Point", "coordinates": [ 3.6345159, 6.4723522 ] } },
{ "type": "Feature", "properties": { "Unnamed: 0": 40, "Name": "Premium Vision Eye Clinic", "Address": "Opal Plaza, No 12 Dream Africana Way Orchid Road Besides Enyo Filling Station After Mega1 Mall By Eleganza Busstop", "State": "Lagos", "lga_name_x": "Eti Osa", "HMO Plan": "Plan1" }, "geometry": { "type": "Point", "coordinates": [ 3.5431036, 6.4321647 ] } },
{ "type": "Feature", "properties": { "Unnamed: 0": 41, "Name": "Kamcon Eye Care Limited", "Address": "1B Adewumi Adebimpe Drive, Marwa, Lekki", "State": "Lagos", "lga_name_x": "Eti Osa", "HMO Plan": "Plan1" }, "geometry": { "type": "Point", "coordinates": [ 3.4688456, 6.4320842 ] } },
{ "type": "Feature", "properties": { "Unnamed: 0": 42, "Name": "Josgla Vision", "Address": "Ikota Shopping Complex, Suite H381, Road 4, Vgc, Ajah Lekki", "State": "Lagos", "lga_name_x": "Eti Osa", "HMO Plan": "Plan1" }, "geometry": { "type": "Point", "coordinates": [ 3.5482003, 6.4660695 ] } },
{ "type": "Feature", "properties": { "Unnamed: 0": 43, "Name": "Clear View Optics Limited", "Address": "5, Ribadu Road, Sw", "State": "Lagos", "lga_name_x": "Eti Osa", "HMO Plan": "Plan1" }, "geometry": { "type": "Point", "coordinates": [ 3.414075, 6.4495862 ] } },
{ "type": "Feature", "properties": { "Unnamed: 0": 44, "Name": "Krystal Optical Limited", "Address": "156, Awolowo Rd", "State": "Lagos", "lga_name_x": "Eti Osa", "HMO Plan": "Plan1" }, "geometry": { "type": "Point", "coordinates": [ 3.421228, 6.4424552 ] } },
{ "type": "Feature", "properties": { "Unnamed: 0": 45, "Name": "Ultimate Eye Clinic", "Address": "16, Biaduo Street, Off Keffi Road, S.W. Ikoyi", "State": "Lagos", "lga_name_x": "Eti Osa", "HMO Plan": "Plan1" }, "geometry": { "type": "Point", "coordinates": [ 3.4343314, 6.453528 ] } },
{ "type": "Feature", "properties": { "Unnamed: 0": 46, "Name": "Metro Eyes Limited Ikoyi", "Address": "22 Keffi Street", "State": "Lagos", "lga_name_x": "Eti Osa", "HMO Plan": "Plan1" }, "geometry": { "type": "Point", "coordinates": [ 3.415058, 6.4451024 ] } },
{ "type": "Feature", "properties": { "Unnamed: 0": 48, "Name": "Amara Medicare Ltd", "Address": "202, Awolowo Road, Ikoyi", "State": "Lagos", "lga_name_x": "Eti Osa", "HMO Plan": "Plan1" }, "geometry": { "type": "Point", "coordinates": [ 3.4269933, 6.4447542 ] } },
{ "type": "Feature", "properties": { "Unnamed: 0": 53, "Name": "Clearsprings Opticals", "Address": "Suite H46-73 Ikota Shopping Complex, Vgc, Ajah", "State": "Lagos", "lga_name_x": "Eti Osa", "HMO Plan": "Plan1" }, "geometry": { "type": "Point", "coordinates": [ 3.5557886, 6.4653933 ] } },
{ "type": "Feature", "properties": { "Unnamed: 0": 54, "Name": "Amara Medicare Ltd", "Address": "Plot 76B, Eleganza Gardens(Opposite Vgc) Lekki-Epe Expressway, Lagos", "State": "Lagos", "lga_name_x": "Eti Osa", "HMO Plan": "Plan1" }, "geometry": { "type": "Point", "coordinates": [ 3.5559518, 6.4603012 ] } },
{ "type": "Feature", "properties": { "Unnamed: 0": 55, "Name": "Amara Medicare Ltd", "Address": "Ff01 New Era Mall, Cardinal Okogie (Shoprite) Road, Sangotedo", "State": "Lagos", "lga_name_x": "Eti Osa", "HMO Plan": "Plan1" }, "geometry": { "type": "Point", "coordinates": [ 3.6399594, 6.4590508 ] } },
{ "type": "Feature", "properties": { "Unnamed: 0": 56, "Name": "Salem Vision Eyecare And Optical Services", "Address": "Suite B25/26, Joygood Mall, Sangotedo", "State": "Lagos", "lga_name_x": "Eti Osa", "HMO Plan": "Plan1" }, "geometry": { "type": "Point", "coordinates": [ 3.6268464, 6.4534872 ] } },
{ "type": "Feature", "properties": { "Unnamed: 0": 57, "Name": "Beracca Eye Clinic Ltd Lagos", "Address": "Plot 6 Tf Kuboye Road, Oniru Lekki.", "State": "Lagos", "lga_name_x": "Eti Osa", "HMO Plan": "Plan3" }, "geometry": { "type": "Point", "coordinates": [ 3.4600909, 6.4286401 ] } },
{ "type": "Feature", "properties": { "Unnamed: 0": 13, "Name": "Unique Eye Centre", "Address": "Suite 101 Edo House, Ahmadu Bello Way, Vi", "State": "Lagos", "lga_name_x": "Uhunmwonde", "HMO Plan": "Plan1" }, "geometry": { "type": "Point", "coordinates": [ 5.9304056, 6.6341831 ] } },
{ "type": "Feature", "properties": { "Unnamed: 0": 47, "Name": "Citadel Opticals", "Address": "8 Awolowo Road, Ikoyi", "State": "Lagos", "lga_name_x": "Lagos Island", "HMO Plan": "Plan1" }, "geometry": { "type": "Point", "coordinates": [ 3.405394, 6.4435682 ] } },
{ "type": "Feature", "properties": { "Unnamed: 0": 49, "Name": "Faratori Eye Centre", "Address": "187 Igbosere Road,Lagos", "State": "Lagos", "lga_name_x": "Lagos Island", "HMO Plan": "Plan1" }, "geometry": { "type": "Point", "coordinates": [ 3.4019845, 6.4500825 ] } },
{ "type": "Feature", "properties": { "Unnamed: 0": 50, "Name": "Optimum View Ltd", "Address": "48 King George V Road Onikan", "State": "Lagos", "lga_name_x": "Lagos Island", "HMO Plan": "Plan1" }, "geometry": { "type": "Point", "coordinates": [ 3.4053212, 6.4476227 ] } },
{ "type": "Feature", "properties": { "Unnamed: 0": 51, "Name": "Dunamis Eye Centre", "Address": "1St Floor, Mandilas Building Annex, 35 Simpson Street, Sura, Lagos Island, Lagos", "State": "Lagos", "lga_name_x": "Lagos Island", "HMO Plan": "Plan1" }, "geometry": { "type": "Point", "coordinates": [ 3.4023004, 6.4532779 ] } },
{ "type": "Feature", "properties": { "Unnamed: 0": 52, "Name": "Oakbend Eye Clinic", "Address": "Suite 21 Tafawa Balewa Square, Racecourse", "State": "Lagos", "lga_name_x": "Lagos Island", "HMO Plan": "Plan1" }, "geometry": { "type": "Point", "coordinates": [ 3.4022252, 6.4485939 ] } },
{ "type": "Feature", "properties": { "Unnamed: 0": 59, "Name": "The Eye Doctors, Ikeja", "Address": "60, Toyin Street, Ikeja", "State": "Lagos", "lga_name_x": "Ikeja", "HMO Plan": "Plan1" }, "geometry": { "type": "Point", "coordinates": [ 3.3535048, 6.5954564 ] } },
{ "type": "Feature", "properties": { "Unnamed: 0": 60, "Name": "Hygei Dental And Eye Clinic", "Address": "14, Sowemimo Street G.R.A. Ikeja", "State": "Lagos", "lga_name_x": "Ikeja", "HMO Plan": "Plan1" }, "geometry": { "type": "Point", "coordinates": [ 3.3448255, 6.5786194 ] } },
{ "type": "Feature", "properties": { "Unnamed: 0": 61, "Name": "Ultimate Eye Clinic", "Address": "50 52 Toyin Str, Opp Water Parks", "State": "Lagos", "lga_name_x": "Ikeja", "HMO Plan": "Plan1" }, "geometry": { "type": "Point", "coordinates": [ 3.352599, 6.5955065 ] } },
{ "type": "Feature", "properties": { "Unnamed: 0": 62, "Name": "Cathem Eye Hospital", "Address": "107B, Adeniyi Jones, Avenue, Ikeja, Lagos", "State": "Lagos", "lga_name_x": "Ikeja", "HMO Plan": "Plan3" }, "geometry": { "type": "Point", "coordinates": [ 3.3449133, 6.6198404 ] } },
{ "type": "Feature", "properties": { "Unnamed: 0": 63, "Name": "Choice Optical And Surgical Services Limited", "Address": "34 Allen Avenue Ikeja, Lagos", "State": "Lagos", "lga_name_x": "Ikeja", "HMO Plan": "Plan1" }, "geometry": { "type": "Point", "coordinates": [ 3.3532681, 6.5992518 ] } },
{ "type": "Feature", "properties": { "Unnamed: 0": 64, "Name": "Mega Vision", "Address": "15 Allen Avenue Ikeja, Lagos", "State": "Lagos", "lga_name_x": "Ikeja", "HMO Plan": "Plan3" }, "geometry": { "type": "Point", "coordinates": [ 3.3539465, 6.5974682 ] } },
{ "type": "Feature", "properties": { "Unnamed: 0": 65, "Name": "Swift Eyecare Limited", "Address": "90, Allen Avenue, Ikeja Lagos (Wuraola House)", "State": "Lagos", "lga_name_x": "Ikeja", "HMO Plan": "Plan3" }, "geometry": { "type": "Point", "coordinates": [ 3.3514187, 6.6031098 ] } },
{ "type": "Feature", "properties": { "Unnamed: 0": 66, "Name": "Vision Plus Specialist", "Address": "10 Omotayo Ojo Street, Off Majekodunmi Street, Off Allen Avenue, Lagos", "State": "Lagos", "lga_name_x": "Ikeja", "HMO Plan": "Plan1" }, "geometry": { "type": "Point", "coordinates": [ 3.3517662, 6.5987722 ] } },
{ "type": "Feature", "properties": { "Unnamed: 0": 67, "Name": "Peak Eye Care", "Address": "8B Ikosi Road,Off Kudirat Abiola Way,Oregun,Ikeja", "State": "Lagos", "lga_name_x": "Ikeja", "HMO Plan": "Plan2" }, "geometry": { "type": "Point", "coordinates": [ 3.3658838, 6.6003836 ] } },
{ "type": "Feature", "properties": { "Unnamed: 0": 68, "Name": "P.M.B Eye Care", "Address": "1 Badagry Street Aba Johnson Crescent Off Adeniyi Jones Ikeja", "State": "Lagos", "lga_name_x": "Ikeja", "HMO Plan": "Plan1" }, "geometry": { "type": "Point", "coordinates": [ 3.3471358, 6.6129949 ] } },
{ "type": "Feature", "properties": { "Unnamed: 0": 69, "Name": "Vision Home Eyecare", "Address": "29 Opebi Road Ikeja", "State": "Lagos", "lga_name_x": "Ikeja", "HMO Plan": "Plan1" }, "geometry": { "type": "Point", "coordinates": [ 3.3585623, 6.5929072 ] } },
{ "type": "Feature", "properties": { "Unnamed: 0": 70, "Name": "Beracca Eye Clinic Ltd Lagos", "Address": "74 Adeniyi Jones Avenue, Ikeja", "State": "Lagos", "lga_name_x": "Ikeja", "HMO Plan": "Plan1" }, "geometry": { "type": "Point", "coordinates": [ 3.3464087, 6.6152463 ] } },
{ "type": "Feature", "properties": { "Unnamed: 0": 71, "Name": "Enny Eye Care", "Address": "Suite 3 And 4 Amethyst Block All Season Plaza 24 Lateef Jakande Road Agindingbi Ikeja", "State": "Lagos", "lga_name_x": "Ikeja", "HMO Plan": "Plan3" }, "geometry": { "type": "Point", "coordinates": [ 3.3532866, 6.6219638 ] } },
{ "type": "Feature", "properties": { "Unnamed: 0": 72, "Name": "Adetula Optical Services", "Address": "18 Ajao Road Off Adeniyi Jones Ikeja", "State": "Lagos", "lga_name_x": "Ikeja", "HMO Plan": "Plan1" }, "geometry": { "type": "Point", "coordinates": [ 3.3406043, 6.6015628 ] } },
{ "type": "Feature", "properties": { "Unnamed: 0": 74, "Name": "Eye Foundation Hospital", "Address": "27B Isaac John Street Gra Ikeja", "State": "Lagos", "lga_name_x": "Ikeja", "HMO Plan": "Plan4" }, "geometry": { "type": "Point", "coordinates": [ 3.3583386, 6.580845 ] } },
{ "type": "Feature", "properties": { "Unnamed: 0": 75, "Name": "Dupsnl Vision", "Address": "14, Toyin Street, Ikeja", "State": "Lagos", "lga_name_x": "Ikeja", "HMO Plan": "Plan1" }, "geometry": { "type": "Point", "coordinates": [ 3.3507384, 6.5958858 ] } },
{ "type": "Feature", "properties": { "Unnamed: 0": 76, "Name": "Opticka Vision", "Address": "Ikeja City Mall", "State": "Lagos", "lga_name_x": "Ikeja", "HMO Plan": "Plan1" }, "geometry": { "type": "Point", "coordinates": [ 3.3581327, 6.6143564 ] } },
{ "type": "Feature", "properties": { "Unnamed: 0": 77, "Name": "Airen Eye Centre", "Address": "8 Mobolaji Bank Anthony Way Ikeja Lagos", "State": "Lagos", "lga_name_x": "Ikeja", "HMO Plan": "Plan1" }, "geometry": { "type": "Point", "coordinates": [ 3.3457986, 6.5939401 ] } },
{ "type": "Feature", "properties": { "Unnamed: 0": 78, "Name": "Eye Diagnostic Optical Services Centre Ltd", "Address": "11 Adeboye Solanke Street Off Allen Ikeja By First Bank Bus Stop", "State": "Lagos", "lga_name_x": "Ikeja", "HMO Plan": "Plan1" }, "geometry": { "type": "Point", "coordinates": [ 3.3527656, 6.6028918 ] } },
{ "type": "Feature", "properties": { "Unnamed: 0": 79, "Name": "Iconic Eyecare Clinic", "Address": "40B, Ajanaku Off Salvation Road Opebi Ikeja Lagos", "State": "Lagos", "lga_name_x": "Ikeja", "HMO Plan": "Plan1" }, "geometry": { "type": "Point", "coordinates": [ 3.3650094, 6.5863143 ] } },
{ "type": "Feature", "properties": { "Unnamed: 0": 80, "Name": "Oxybelle Eye Clinic", "Address": "37 Adeniyi Jones Av Ikeja", "State": "Lagos", "lga_name_x": "Ikeja", "HMO Plan": "Plan1" }, "geometry": { "type": "Point", "coordinates": [ 3.3430491, 6.6091035 ] } },
{ "type": "Feature", "properties": { "Unnamed: 0": 82, "Name": "Just Vision Eye Centre", "Address": "1A Opebi Link Road, Off Kudirat Abiola Way, Ikeja", "State": "Lagos", "lga_name_x": "Ikeja", "HMO Plan": "Plan1" }, "geometry": { "type": "Point", "coordinates": [ 3.3658715, 6.5992286 ] } },
{ "type": "Feature", "properties": { "Unnamed: 0": 83, "Name": "Vaso Vision Eye Clinic", "Address": "Brighthope Specialist Hospital Complex, 530 Lateef Jakande Road, Agidingbi, Ikeja", "State": "Lagos", "lga_name_x": "Ikeja", "HMO Plan": "Plan1" }, "geometry": { "type": "Point", "coordinates": [ 3.3525472, 6.6240515 ] } },
{ "type": "Feature", "properties": { "Unnamed: 0": 85, "Name": "Optomax Vision", "Address": "6 Aromire Avenue, Suite B1, Ojuolape Plaza", "State": "Lagos", "lga_name_x": "Ikeja", "HMO Plan": "Plan1" }, "geometry": { "type": "Point", "coordinates": [ 3.3486709, 6.6080568 ] } },
{ "type": "Feature", "properties": { "Unnamed: 0": 86, "Name": "Rince Eyecare Limited", "Address": "Suite 14, First Capital Plaza, No 27 Opebi Road, Ikeja", "State": "Lagos", "lga_name_x": "Ikeja", "HMO Plan": "Plan1" }, "geometry": { "type": "Point", "coordinates": [ 3.3586153, 6.5928511 ] } },
{ "type": "Feature", "properties": { "Unnamed: 0": 115, "Name": "Focus Eye Centre", "Address": "17 Ijaiye Road, Opposite Waec Office, Ogba", "State": "Lagos", "lga_name_x": "Ikeja", "HMO Plan": "Plan1" }, "geometry": { "type": "Point", "coordinates": [ 3.3361254, 6.6261233 ] } },
{ "type": "Feature", "properties": { "Unnamed: 0": 117, "Name": "Eyeline Limited", "Address": "Suite 215,All Season Place, Nos 74 Isheri Road, Beside Frsc, Ojodu", "State": "Lagos", "lga_name_x": "Ikeja", "HMO Plan": "Plan1" }, "geometry": { "type": "Point", "coordinates": [ 3.3628923, 6.6397041 ] } },
{ "type": "Feature", "properties": { "Unnamed: 0": 118, "Name": "Modern Eye Clinic", "Address": "16/18 Ogunusi Road, Akiode Bus Stop, Opp Imole Estate Phase 1, Ojodu Berger", "State": "Lagos", "lga_name_x": "Ikeja", "HMO Plan": "Plan1" }, "geometry": { "type": "Point", "coordinates": [ 3.3670057, 6.6402244 ] } },
{ "type": "Feature", "properties": { "Unnamed: 0": 81, "Name": "Visionnex Specialist Clinic Limited", "Address": "Suite 308, Meros Plaza, Plot 781B Somide Odujinri Avenue, Omole Phase 2, Isheri Olowora", "State": "Lagos", "lga_name_x": "Kosofe", "HMO Plan": "Plan1" }, "geometry": { "type": "Point", "coordinates": [ 3.374941, 6.6387081 ] } },
{ "type": "Feature", "properties": { "Unnamed: 0": 100, "Name": "Mannych Eye Clinic", "Address": "2B Doyin Omololu Street Off Demurin Road Alapere-Ketu", "State": "Lagos", "lga_name_x": "Kosofe", "HMO Plan": "Plan1" }, "geometry": { "type": "Point", "coordinates": [ 3.3961272, 6.5965355 ] } },
{ "type": "Feature", "properties": { "Unnamed: 0": 116, "Name": "Ocuville Eye Centre", "Address": "95, Ogudu Road, Marble House Abule Soko, Ojota", "State": "Lagos", "lga_name_x": "Kosofe", "HMO Plan": "Plan2" }, "geometry": { "type": "Point", "coordinates": [ 3.3874724, 6.5790782 ] } },
{ "type": "Feature", "properties": { "Unnamed: 0": 119, "Name": "Vision Capital Eye Magodo", "Address": "8 Cmd Road Magodo Gra Phase 2 Lagos", "State": "Lagos", "lga_name_x": "Kosofe", "HMO Plan": "Plan1" }, "geometry": { "type": "Point", "coordinates": [ 3.365544, 6.6196691 ] } },
{ "type": "Feature", "properties": { "Unnamed: 0": 120, "Name": "Credible Eye Care Ltd", "Address": "18, Kasumu Street, Shangisha/Magodo Estate Phase 2, Lagos", "State": "Lagos", "lga_name_x": "Kosofe", "HMO Plan": "Plan1" }, "geometry": { "type": "Point", "coordinates": [ 3.3750784, 6.6134291 ] } },
{ "type": "Feature", "properties": { "Unnamed: 0": 130, "Name": "Kreisson Eye Center", "Address": "65 Ikosi Road Ikosi Ketu", "State": "Lagos", "lga_name_x": "Kosofe", "HMO Plan": "Plan1" }, "geometry": { "type": "Point", "coordinates": [ 3.3814609, 6.6000109 ] } },
{ "type": "Feature", "properties": { "Unnamed: 0": 84, "Name": "Eyestyle Optique", "Address": "The Airport Business Hub, Along Intl Airport Road, Opp. Nahco, Ikeja", "State": "Lagos", "lga_name_x": "Oshodi/Isolo", "HMO Plan": "Plan1" }, "geometry": { "type": "Point", "coordinates": [ 3.3217315, 6.5700881 ] } },
{ "type": "Feature", "properties": { "Unnamed: 0": 93, "Name": "Belvision Eye Care", "Address": "8, Latif Salami Street, Gods Glory Plaza Near Airport Junction, 107 Mafoluku Road, Same Building With Fbn, Beside Domino, Mafoluku, Off Airport Road", "State": "Lagos", "lga_name_x": "Oshodi/Isolo", "HMO Plan": "Plan1" }, "geometry": { "type": "Point", "coordinates": [ 3.3325956, 6.5553206 ] } },
{ "type": "Feature", "properties": { "Unnamed: 0": 94, "Name": "Brighthouse Eye Care Clinic", "Address": "Divino Plaza ,1 Chivita Avenue ,By 2/4 Jay Momoh Street, Ajao Estate", "State": "Lagos", "lga_name_x": "Oshodi/Isolo", "HMO Plan": "Plan1" }, "geometry": { "type": "Point", "coordinates": [ 3.322433, 6.5449446 ] } },
{ "type": "Feature", "properties": { "Unnamed: 0": 95, "Name": "Havilah Eye Care And Optical Services", "Address": "33, Osolo Way, Ajao Estate", "State": "Lagos", "lga_name_x": "Oshodi/Isolo", "HMO Plan": "Plan1" }, "geometry": { "type": "Point", "coordinates": [ 3.3329829, 6.5466174 ] } },
{ "type": "Feature", "properties": { "Unnamed: 0": 96, "Name": "Acrivision Eyecare", "Address": "2 Godwin Omonua Street Ireakari Estate Isolo By Bayo Olumide Junction", "State": "Lagos", "lga_name_x": "Oshodi/Isolo", "HMO Plan": "Plan1" }, "geometry": { "type": "Point", "coordinates": [ 3.3225963, 6.5200813 ] } },
{ "type": "Feature", "properties": { "Unnamed: 0": 110, "Name": "Dothan Eye Centre", "Address": "108,Suit 11 And 12 Ago Palace Way,Okota", "State": "Lagos", "lga_name_x": "Oshodi/Isolo", "HMO Plan": "Plan3" }, "geometry": { "type": "Point", "coordinates": [ 3.3067368, 6.5163864 ] } },
{ "type": "Feature", "properties": { "Unnamed: 0": 111, "Name": "Rightsight Specialist Eye Centre", "Address": "38 Ago Palace Way Okota", "State": "Lagos", "lga_name_x": "Oshodi/Isolo", "HMO Plan": "Plan3" }, "geometry": { "type": "Point", "coordinates": [ 3.3060467, 6.5032937 ] } },
{ "type": "Feature", "properties": { "Unnamed: 0": 112, "Name": "Specmakers Vision And Eye Health Centre", "Address": "129 Okota Road, Opposite Guo Transport, Okota, Isolo", "State": "Lagos", "lga_name_x": "Oshodi/Isolo", "HMO Plan": "Plan1" }, "geometry": { "type": "Point", "coordinates": [ 3.3217207, 6.5129659 ] } },
{ "type": "Feature", "properties": { "Unnamed: 0": 131, "Name": "Faith Eye Q", "Address": "5 Nnpc Road, Ejigbo", "State": "Lagos", "lga_name_x": "Oshodi/Isolo", "HMO Plan": "Plan1" }, "geometry": { "type": "Point", "coordinates": [ 3.3085655, 6.5465202 ] } },
{ "type": "Feature", "properties": { "Unnamed: 0": 132, "Name": "Credible Eye Care Ltd", "Address": "194B Egbe Road, Ori Oke Bus Stop, Ejigbo, Lagos", "State": "Lagos", "lga_name_x": "Oshodi/Isolo", "HMO Plan": "Plan1" }, "geometry": { "type": "Point", "coordinates": [ 3.290858, 6.5389792 ] } },
{ "type": "Feature", "properties": { "Unnamed: 0": 134, "Name": "Vision Capital Eye Hospital", "Address": "No 7 Asa Afariogun Street Ajao Estate", "State": "Lagos", "lga_name_x": "Oshodi/Isolo", "HMO Plan": "Plan1" }, "geometry": { "type": "Point", "coordinates": [ 3.3297994, 6.5463625 ] } },
{ "type": "Feature", "properties": { "Unnamed: 0": 142, "Name": "Pavik Eye Clinic And Contact Lens", "Address": "Royal Plaza 112 Mushin Rd Opposite Isolo Health Care Centre", "State": "Lagos", "lga_name_x": "Oshodi/Isolo", "HMO Plan": "Plan1" }, "geometry": { "type": "Point", "coordinates": [ 3.3206067, 6.5289786 ] } },
{ "type": "Feature", "properties": { "Unnamed: 0": 87, "Name": "Smiley Opticals Services", "Address": "92 Adeniran Ogunsanya Street", "State": "Lagos", "lga_name_x": "Surulere", "HMO Plan": "Plan1" }, "geometry": { "type": "Point", "coordinates": [ 3.3564266, 6.4916884 ] } },
{ "type": "Feature", "properties": { "Unnamed: 0": 88, "Name": "Ladkem Eye Hospital", "Address": "35 Eric Manuel Crescent Off Bode Thomas Road Surulere", "State": "Lagos", "lga_name_x": "Surulere", "HMO Plan": "Plan3" }, "geometry": { "type": "Point", "coordinates": [ 3.3611158, 6.490961 ] } },
{ "type": "Feature", "properties": { "Unnamed: 0": 89, "Name": "Vision Aids Eye Clinic", "Address": "1, Curtis Adeniyi Jones Close Off Gbajumo Crescent Off Adeniran Ogunsanya", "State": "Lagos", "lga_name_x": "Surulere", "HMO Plan": "Plan1" }, "geometry": { "type": "Point", "coordinates": [ 3.3560723, 6.4918155 ] } },
{ "type": "Feature", "properties": { "Unnamed: 0": 90, "Name": "Optika Eye Clinic", "Address": "9, Bode Thomas Street Surulere, Lagos", "State": "Lagos", "lga_name_x": "Surulere", "HMO Plan": "Plan1" }, "geometry": { "type": "Point", "coordinates": [ 3.3493017, 6.488949 ] } },
{ "type": "Feature", "properties": { "Unnamed: 0": 92, "Name": "Kesona Eye Centre", "Address": "121 Itire Road, Surulere", "State": "Lagos", "lga_name_x": "Surulere", "HMO Plan": "Plan1" }, "geometry": { "type": "Point", "coordinates": [ 3.3494958, 6.5125341 ] } },
{ "type": "Feature", "properties": { "Unnamed: 0": 137, "Name": "Providence Optometric Clinic", "Address": "6 Pearse Street Off Ojuelegba Road By Abiodun Bookshop Yaba Near Tejuosho Market Yaba", "State": "Lagos", "lga_name_x": "Surulere", "HMO Plan": "Plan1" }, "geometry": { "type": "Point", "coordinates": [ 3.367796, 6.5081275 ] } },
{ "type": "Feature", "properties": { "Unnamed: 0": 91, "Name": "Ihouse Optical And Dental Clinic Ltd Surulere", "Address": "8 Afric Road, Surulere Iponri", "State": "Lagos", "lga_name_x": "Lagos Mainland", "HMO Plan": "Plan1" }, "geometry": { "type": "Point", "coordinates": [ 3.3688239, 6.4858878 ] } },
{ "type": "Feature", "properties": { "Unnamed: 0": 107, "Name": "Procare Vision Eye Clinic", "Address": "68,Queen Street,Yaba,Lagos", "State": "Lagos", "lga_name_x": "Lagos Mainland", "HMO Plan": "Plan1" }, "geometry": { "type": "Point", "coordinates": [ 3.3789941, 6.5019958 ] } },
{ "type": "Feature", "properties": { "Unnamed: 0": 108, "Name": "Sight Plus Specialist Eye Centre", "Address": "4, Alara Street Onike Yaba Lagos", "State": "Lagos", "lga_name_x": "Lagos Mainland", "HMO Plan": "Plan1" }, "geometry": { "type": "Point", "coordinates": [ 3.3830307, 6.5066871 ] } },
{ "type": "Feature", "properties": { "Unnamed: 0": 97, "Name": "1St Contact Eye Clinic", "Address": "73 Coker Road, Off Town Planning Way, Ilupeju", "State": "Lagos", "lga_name_x": "Mushin", "HMO Plan": "Plan1" }, "geometry": { "type": "Point", "coordinates": [ 3.3622951, 6.5559827 ] } },
{ "type": "Feature", "properties": { "Unnamed: 0": 98, "Name": "Viewpoint Specialist Eye Centre Ilupeju", "Address": "43 Coker Road Beside Halcyon International School, Ilupeju", "State": "Lagos", "lga_name_x": "Mushin", "HMO Plan": "Plan1" }, "geometry": { "type": "Point", "coordinates": [ 3.3618116, 6.5510741 ] } },
{ "type": "Feature", "properties": { "Unnamed: 0": 99, "Name": "Sparkling Eyes And Optical Services", "Address": "16 Obokun Street Off Coker Road Ilupeju", "State": "Lagos", "lga_name_x": "Mushin", "HMO Plan": "Plan1" }, "geometry": { "type": "Point", "coordinates": [ 3.3602193, 6.5538598 ] } },
{ "type": "Feature", "properties": { "Unnamed: 0": 113, "Name": "Eye Masters Ikorodu Road", "Address": "208 Ikorodu Road By Palmgroove Bus Stop Near Nnpc Filluing Station", "State": "Lagos", "lga_name_x": "Mushin", "HMO Plan": "Plan1" }, "geometry": { "type": "Point", "coordinates": [ 3.366824, 6.549443 ] } },
{ "type": "Feature", "properties": { "Unnamed: 0": 101, "Name": "Diphillab Vision Care", "Address": "No 38 Isawo Road Ikorodu", "State": "Lagos", "lga_name_x": "Ikorodu", "HMO Plan": "Plan1" }, "geometry": { "type": "Point", "coordinates": [ 3.4831936, 6.6295839 ] } },
{ "type": "Feature", "properties": { "Unnamed: 0": 102, "Name": "De Kings Eye Clinic", "Address": "28 Fatuga Onamade Street Off Kas Avenue, Sabo Ikorodu", "State": "Lagos", "lga_name_x": "Ikorodu", "HMO Plan": "Plan1" }, "geometry": { "type": "Point", "coordinates": [ 3.5084594, 6.624348 ] } },
{ "type": "Feature", "properties": { "Unnamed: 0": 103, "Name": "Ocuville Eye Centre Ikorodu", "Address": "Blue House,134 Lagos Road,Jumofak Bus Stop Close To Aruna Bus Stop ,Ikorodu", "State": "Lagos", "lga_name_x": "Ikorodu", "HMO Plan": "Plan1" }, "geometry": { "type": "Point", "coordinates": [ 3.4931695, 6.6245701 ] } },
{ "type": "Feature", "properties": { "Unnamed: 0": 104, "Name": "Fidei Eye Centre Limited", "Address": "69 Lagos Road,Agric Bus Stop,Ikorodu, Lagos", "State": "Lagos", "lga_name_x": "Ikorodu", "HMO Plan": "Plan1" }, "geometry": { "type": "Point", "coordinates": [ 3.5147986, 6.6109637 ] } },
{ "type": "Feature", "properties": { "Unnamed: 0": 105, "Name": "Iasis Eye Centre Limited", "Address": "92D Isawo Road, Owutu, Agric, Ikorodu", "State": "Lagos", "lga_name_x": "Ikorodu", "HMO Plan": "Plan1" }, "geometry": { "type": "Point", "coordinates": [ 3.4813092, 6.6381104 ] } },
{ "type": "Feature", "properties": { "Unnamed: 0": 106, "Name": "Mannych Eye Clinic", "Address": "67 Ayangburen Road By Olubi Junction Ikorodu", "State": "Lagos", "lga_name_x": "Ikorodu", "HMO Plan": "Plan1" }, "geometry": { "type": "Point", "coordinates": [ 3.5017161, 6.6136811 ] } },
{ "type": "Feature", "properties": { "Unnamed: 0": 109, "Name": "Next Generation Eye Clinic", "Address": "Plot 1 Road A Beside Deke Supermarket, By Iroko Estate Gate, Isheri Olofin", "State": "Lagos", "lga_name_x": "Alimosho", "HMO Plan": "Plan1" }, "geometry": { "type": "Point", "coordinates": [ 3.2687019, 6.5766914 ] } },
{ "type": "Feature", "properties": { "Unnamed: 0": 133, "Name": "Next Generation Eye Clinic", "Address": "133 Isolo Road, Hostel B/Stop Egbe, Ikotun", "State": "Lagos", "lga_name_x": "Alimosho", "HMO Plan": "Plan1" }, "geometry": { "type": "Point", "coordinates": [ 3.2613394, 6.5283486 ] } },
{ "type": "Feature", "properties": { "Unnamed: 0": 114, "Name": "Forst Eye Clinic", "Address": "14 Kayode Street Off Ijaiye Road By Caterpillar Bus Stop Ogba", "State": "Lagos", "lga_name_x": "Ifako/Ijaye", "HMO Plan": "Plan1" }, "geometry": { "type": "Point", "coordinates": [ 3.3371208, 6.6341459 ] } },
{ "type": "Feature", "properties": { "Unnamed: 0": 139, "Name": "Standard Life Care Hospital", "Address": "5,Paul Street,Off Sanni Balogun Street,Abule Egba,Ojokoro.", "State": "Lagos", "lga_name_x": "Ifako/Ijaye", "HMO Plan": "Plan1" }, "geometry": { "type": "Point", "coordinates": [ 3.306456, 6.6608709 ] } },
{ "type": "Feature", "properties": { "Unnamed: 0": 140, "Name": "Dean Eye Care", "Address": "16 Charity Road Beside Rita'S Event And Suites, Abule Egba. Lagos State.", "State": "Lagos", "lga_name_x": "Ifako/Ijaye", "HMO Plan": "Plan1" }, "geometry": { "type": "Point", "coordinates": [ 3.3102313, 6.656817 ] } },
{ "type": "Feature", "properties": { "Unnamed: 0": 121, "Name": "Aisyl Eye Clinic", "Address": "Galaxy Complex, Suite 45/46, After Agbara Police Station, Off Badagry Expressway, Agbara", "State": "Lagos", "lga_name_x": "Badagry", "HMO Plan": "Plan1" }, "geometry": { "type": "Point", "coordinates": [ 3.0184816, 6.475407 ] } },
{ "type": "Feature", "properties": { "Unnamed: 0": 122, "Name": "Vivid Vision Eye Clinic Limited", "Address": "10 Mabinuori Dawodu Street Gbagada Phase 1 By Charly Boy Bus Stop Gbagada", "State": "Lagos", "lga_name_x": "Shomolu", "HMO Plan": "Plan1" }, "geometry": { "type": "Point", "coordinates": [ 3.3771404, 6.5484834 ] } },
{ "type": "Feature", "properties": { "Unnamed: 0": 135, "Name": "Meridiem Eye Clinic", "Address": "270 Ikorodu Road, Obanikoro", "State": "Lagos", "lga_name_x": "Shomolu", "HMO Plan": "Plan1" }, "geometry": { "type": "Point", "coordinates": [ 3.3676342, 6.5518473 ] } },
{ "type": "Feature", "properties": { "Unnamed: 0": 123, "Name": "Swift Eyecare Limited", "Address": "4Th Avenue, A1 Close, Festac Town.", "State": "Lagos", "lga_name_x": "Amuwo Odofin", "HMO Plan": "Plan3" }, "geometry": { "type": "Point", "coordinates": [ 3.2806784, 6.4766146 ] } },
{ "type": "Feature", "properties": { "Unnamed: 0": 124, "Name": "Viewpoint Specialist Eye Centre Festac", "Address": "Kingdom Plaza, Suite 15 And 17, Plot 784, Festac Link Road, Opposite Co-Operation Estate, Amuwo Odofin", "State": "Lagos", "lga_name_x": "Amuwo Odofin", "HMO Plan": "Plan1" }, "geometry": { "type": "Point", "coordinates": [ 3.3068053, 6.4711347 ] } },
{ "type": "Feature", "properties": { "Unnamed: 0": 125, "Name": "Credible Eye Care Ltd", "Address": "House 7, 200 Road, 2Nd Avenue, Festac Town", "State": "Lagos", "lga_name_x": "Amuwo Odofin", "HMO Plan": "Plan1" }, "geometry": { "type": "Point", "coordinates": [ 3.2996054, 6.4637267 ] } },
{ "type": "Feature", "properties": { "Unnamed: 0": 126, "Name": "Framel Eye Clinic", "Address": "Suite 20, Ultima Shopping Complex, Opp J Close, 21Rd Festac", "State": "Lagos", "lga_name_x": "Amuwo Odofin", "HMO Plan": "Plan1" }, "geometry": { "type": "Point", "coordinates": [ 3.2938137, 6.4684573 ] } },
{ "type": "Feature", "properties": { "Unnamed: 0": 127, "Name": "Perofak Eye Clinic", "Address": "328 Rabiu Babatunde Tinubu Road Amuwo-Odofin Lagos", "State": "Lagos", "lga_name_x": "Amuwo Odofin", "HMO Plan": "Plan1" }, "geometry": { "type": "Point", "coordinates": [ 3.3122388, 6.4698323 ] } },
{ "type": "Feature", "properties": { "Unnamed: 0": 128, "Name": "Swift Eyecare Limited", "Address": "1, Oluwo Street, Fountain House (Deeper Life Bus Stop) Badagry Express Road, Ijanikin, Agbara Lagos", "State": "Lagos", "lga_name_x": "Ado Odo/Ota", "HMO Plan": "Plan3" }, "geometry": { "type": "Point", "coordinates": [ 3.1114879, 6.5114449 ] } },
{ "type": "Feature", "properties": { "Unnamed: 0": 129, "Name": "Ihouse Optical And Dental Clinic Ltd", "Address": "Block 35, Plot C Area 4Opic Estate Agbara Beside The Vio Office", "State": "Lagos", "lga_name_x": "Ado Odo/Ota", "HMO Plan": "Plan1" }, "geometry": { "type": "Point", "coordinates": [ 3.1114879, 6.5114449 ] } },
{ "type": "Feature", "properties": { "Unnamed: 0": 307, "Name": "Metro Eyes Ota", "Address": "89 Idiroko Road, Joju Roundabout, Behind Ckc Hospital, Sango, Ota", "State": "Ogun", "lga_name_x": "Ado Odo/Ota", "HMO Plan": "Plan1" }, "geometry": { "type": "Point", "coordinates": [ 3.2396447, 6.6999972 ] } },
{ "type": "Feature", "properties": { "Unnamed: 0": 136, "Name": "Vision Renew Eye Clinic And Optical Services Ltd", "Address": "165 Ojo Igbede Road, Ilaje Bus Stop, Ajangbadi", "State": "Lagos", "lga_name_x": "Ojo", "HMO Plan": "Plan1" }, "geometry": { "type": "Point", "coordinates": [ 3.1726449, 6.462716 ] } },
{ "type": "Feature", "properties": { "Unnamed: 0": 138, "Name": "Procare Vision Eye Clinic", "Address": "229 Kirikiri Road, Olodi Apapa, Ajegunle. Landmark Is Fidelity Bank Trinity Bus Stop, Ajegunle,07039911944 , 08179460561.", "State": "Lagos", "lga_name_x": "Ajeromi/Ifelodun", "HMO Plan": "Plan1" }, "geometry": { "type": "Point", "coordinates": [ 3.323126, 6.447619 ] } },
{ "type": "Feature", "properties": { "Unnamed: 0": 143, "Name": "Atlanta Eye Clinic", "Address": "Suite 1, Cherry Hill Plaza, Plot 1060 Eke A. Yusuf Close, Utako", "State": "Abuja", "lga_name_x": "Municipal Area Council", "HMO Plan": "Plan1" }, "geometry": { "type": "Point", "coordinates": [ 7.4374567, 9.0685033 ] } },
{ "type": "Feature", "properties": { "Unnamed: 0": 144, "Name": "Kohch Eye Clinic", "Address": "Suite 21 Nurnberger Plaza, Plot 1723 Adetokunbo Ademola Crescent", "State": "Abuja", "lga_name_x": "Municipal Area Council", "HMO Plan": "Plan1" }, "geometry": { "type": "Point", "coordinates": [ 7.4896619, 9.0721218 ] } },
{ "type": "Feature", "properties": { "Unnamed: 0": 145, "Name": "Marafam Eye Care Ltd", "Address": "Suite B14 2Nd Floor Front View Oti Carpets Complex Plot 1221 Adetokunbo Ademola Crescent Wuse Ii Abuja", "State": "Abuja", "lga_name_x": "Municipal Area Council", "HMO Plan": "Plan1" }, "geometry": { "type": "Point", "coordinates": [ 7.4812776, 9.0797204 ] } },
{ "type": "Feature", "properties": { "Unnamed: 0": 146, "Name": "Florish Eye Care Limited", "Address": "Nimota Plaza Suite 12/13 Opposite Nicon Luxury Hotel, Plot 855 Tafawa Balewa Way Area 11, Garki", "State": "Abuja", "lga_name_x": "Municipal Area Council", "HMO Plan": "Plan1" }, "geometry": { "type": "Point", "coordinates": [ 7.4953225, 9.045125 ] } },
{ "type": "Feature", "properties": { "Unnamed: 0": 147, "Name": "Dcindy Eye Care Limited", "Address": "Aqua Fall, 24 Portharcourt Crescent Off Gimbiya Street, Area 11, Garki Abuja", "State": "Abuja", "lga_name_x": "Municipal Area Council", "HMO Plan": "Plan1" }, "geometry": { "type": "Point", "coordinates": [ 7.5017598, 9.0372137 ] } },
{ "type": "Feature", "properties": { "Unnamed: 0": 148, "Name": "Alpha Zone Eye Clinic", "Address": "9 Ubiaja Crescent, Same Street As Tantalizers, After Garki Market On The Right, Garki 2", "State": "Abuja", "lga_name_x": "Municipal Area Council", "HMO Plan": "Plan1" }, "geometry": { "type": "Point", "coordinates": [ 7.4905005, 9.0180563 ] } },
{ "type": "Feature", "properties": { "Unnamed: 0": 149, "Name": "First Opticians Abuja", "Address": "Melita Plaza, Garki Area 11", "State": "Abuja", "lga_name_x": "Municipal Area Council", "HMO Plan": "Plan1" }, "geometry": { "type": "Point", "coordinates": [ 7.5034898, 9.0426215 ] } },
{ "type": "Feature", "properties": { "Unnamed: 0": 150, "Name": "Sight Haven", "Address": "Fereprod Medical Center Garki Area 11", "State": "Abuja", "lga_name_x": "Municipal Area Council", "HMO Plan": "Plan1" }, "geometry": { "type": "Point", "coordinates": [ 7.4956872, 9.0362856 ] } },
{ "type": "Feature", "properties": { "Unnamed: 0": 151, "Name": "Cypress Eye Centre", "Address": "No 6 Flat 4 Abak Close, Area 3 Garki", "State": "Abuja", "lga_name_x": "Municipal Area Council", "HMO Plan": "Plan1" }, "geometry": { "type": "Point", "coordinates": [ 7.4816371, 9.029629 ] } },
{ "type": "Feature", "properties": { "Unnamed: 0": 152, "Name": "Danzel Eye Consult", "Address": "5 Malumfashi Close, Garki Area 11", "State": "Abuja", "lga_name_x": "Municipal Area Council", "HMO Plan": "Plan1" }, "geometry": { "type": "Point", "coordinates": [ 7.4951797, 9.0424268 ] } },
{ "type": "Feature", "properties": { "Unnamed: 0": 153, "Name": "Nuns Eye Clinic", "Address": "Ogbomosho Street, Area 8 Garki", "State": "Abuja", "lga_name_x": "Municipal Area Council", "HMO Plan": "Plan1" }, "geometry": { "type": "Point", "coordinates": [ 7.4890602, 9.0340528 ] } },
{ "type": "Feature", "properties": { "Unnamed: 0": 154, "Name": "Vision Experts Eye Clinic", "Address": "Plot 11 Ahmadu Bello Way/ 24 Aguata Close Garki Opposite Dominos Pizza Garki 2 Abuja", "State": "Abuja", "lga_name_x": "Municipal Area Council", "HMO Plan": "Plan3" }, "geometry": { "type": "Point", "coordinates": [ 7.497734, 9.0346743 ] } },
{ "type": "Feature", "properties": { "Unnamed: 0": 155, "Name": "Sightcare Consult Eye Clinic", "Address": "16 Ogbomosho Street, Area 8, Garki,", "State": "Abuja", "lga_name_x": "Municipal Area Council", "HMO Plan": "Plan1" }, "geometry": { "type": "Point", "coordinates": [ 7.4895721, 9.0336623 ] } },
{ "type": "Feature", "properties": { "Unnamed: 0": 156, "Name": "Nu Vision Eye Clinic", "Address": "Suite A02/A10 Area Ii Shopping Mall/Efab Mall, Garki-Abuja", "State": "Abuja", "lga_name_x": "Municipal Area Council", "HMO Plan": "Plan1" }, "geometry": { "type": "Point", "coordinates": [ 7.5037779, 9.0436385 ] } },
{ "type": "Feature", "properties": { "Unnamed: 0": 157, "Name": "Magna Eye Care", "Address": "4, Umuahia Close, Off Emeka Anyaoku Street, Area 11, Garki", "State": "Abuja", "lga_name_x": "Municipal Area Council", "HMO Plan": "Plan1" }, "geometry": { "type": "Point", "coordinates": [ 7.4965517, 9.0427355 ] } },
{ "type": "Feature", "properties": { "Unnamed: 0": 158, "Name": "Samvic Eye Clinic", "Address": "No 8 Faskari Street, Bank Zone, Beside Access Bank, Gt Bank Area, Area 3", "State": "Abuja", "lga_name_x": "Municipal Area Council", "HMO Plan": "Plan1" }, "geometry": { "type": "Point", "coordinates": [ 7.4760258, 9.0299985 ] } },
{ "type": "Feature", "properties": { "Unnamed: 0": 159, "Name": "Peniel Eye And Surgery", "Address": "4B Mwanza Close, Off Idimba St, Off Post Office Rd., Wuse Zone 3", "State": "Abuja", "lga_name_x": "Municipal Area Council", "HMO Plan": "Plan1" }, "geometry": { "type": "Point", "coordinates": [ 7.4726492, 9.06131 ] } },
{ "type": "Feature", "properties": { "Unnamed: 0": 160, "Name": "Smiley Optical Abuja", "Address": "Suite 14, Yasuha Plaza, Plot 1046, Adetokunbo Ademola Crescent", "State": "Abuja", "lga_name_x": "Municipal Area Council", "HMO Plan": "Plan2" }, "geometry": { "type": "Point", "coordinates": [ 7.4766493, 9.0735685 ] } },
{ "type": "Feature", "properties": { "Unnamed: 0": 161, "Name": "Imperial Vision Eye Clinic Limited", "Address": "Suite Ff 11B Berger Paint Plaza No.6 Alexandria Street Wuse 2 Abuja", "State": "Abuja", "lga_name_x": "Municipal Area Council", "HMO Plan": "Plan1" }, "geometry": { "type": "Point", "coordinates": [ 7.467922, 9.0852439 ] } },
{ "type": "Feature", "properties": { "Unnamed: 0": 162, "Name": "De Lens Eye Clinic", "Address": "Suite G14, Febson Mall Plot 2425 Herbert Macaukly Way Wuse Zone 4, Abuja", "State": "Abuja", "lga_name_x": "Municipal Area Council", "HMO Plan": "Plan2" }, "geometry": { "type": "Point", "coordinates": [ 7.4689567, 9.0654707 ] } },
{ "type": "Feature", "properties": { "Unnamed: 0": 163, "Name": "Opticare Eye Clinic", "Address": "No 10 Durban Street, Wuse Ii", "State": "Abuja", "lga_name_x": "Municipal Area Council", "HMO Plan": "Plan1" }, "geometry": { "type": "Point", "coordinates": [ 7.4869386, 9.0699124 ] } },
{ "type": "Feature", "properties": { "Unnamed: 0": 164, "Name": "Hj Eye Clinic", "Address": "Suite B43 Banex Plaza, Wuse Ii", "State": "Abuja", "lga_name_x": "Municipal Area Council", "HMO Plan": "Plan1" }, "geometry": { "type": "Point", "coordinates": [ 7.4767315, 9.0752322 ] } },
{ "type": "Feature", "properties": { "Unnamed: 0": 165, "Name": "Vision 24 Eye Clinic", "Address": "B36 Wuse 2 Ademola Adetokunbo Inside Discovery Mall Opposite Ecobank", "State": "Abuja", "lga_name_x": "Municipal Area Council", "HMO Plan": "Plan1" }, "geometry": { "type": "Point", "coordinates": [ 7.4755206, 9.074136 ] } },
{ "type": "Feature", "properties": { "Unnamed: 0": 166, "Name": "Locus Eye Clinic", "Address": "Nworah Plaza Behind Glo Wuse 2", "State": "Abuja", "lga_name_x": "Municipal Area Council", "HMO Plan": "Plan1" }, "geometry": { "type": "Point", "coordinates": [ 7.4701862, 9.078749 ] } },
{ "type": "Feature", "properties": { "Unnamed: 0": 167, "Name": "Clearview Optics Limited Abuja", "Address": "2Nd Floor Lobito Mall, Lobito Crescent, Wuse 2", "State": "Abuja", "lga_name_x": "Municipal Area Council", "HMO Plan": "Plan1" }, "geometry": { "type": "Point", "coordinates": [ 7.4900841, 9.0723131 ] } },
{ "type": "Feature", "properties": { "Unnamed: 0": 168, "Name": "Niger Optical Services Abuja", "Address": "Standard Plaza, Plot 2302 Hebert Macaulay Way Opp. Sky Memorial Complex Wuse Zone 6, Abuja", "State": "Abuja", "lga_name_x": "Municipal Area Council", "HMO Plan": "Plan1" }, "geometry": { "type": "Point", "coordinates": [ 7.457011, 9.0667013 ] } },
{ "type": "Feature", "properties": { "Unnamed: 0": 169, "Name": "Thelia Eyecare And Optics Limited", "Address": "Suite B8, First Floor, Othni Plaza Wuse Zone 1, Beside Nde", "State": "Abuja", "lga_name_x": "Municipal Area Council", "HMO Plan": "Plan1" }, "geometry": { "type": "Point", "coordinates": [ 7.4674337, 9.0539161 ] } },
{ "type": "Feature", "properties": { "Unnamed: 0": 170, "Name": "Leadway Eye Clinic", "Address": "169 Ademola Adetokunbo Crescent, Wuse Ii", "State": "Abuja", "lga_name_x": "Municipal Area Council", "HMO Plan": "Plan1" }, "geometry": { "type": "Point", "coordinates": [ 7.4848484, 9.0715906 ] } },
{ "type": "Feature", "properties": { "Unnamed: 0": 171, "Name": "Keen Vision Eye Clinic", "Address": "Maitama Stores Complex", "State": "Abuja", "lga_name_x": "Municipal Area Council", "HMO Plan": "Plan1" }, "geometry": { "type": "Point", "coordinates": [ 7.4981326, 9.0885165 ] } },
{ "type": "Feature", "properties": { "Unnamed: 0": 172, "Name": "Absolute Vision Eye Clinic.", "Address": "6 Udi Hill Close Off Aso Drive Maitaima Abuja", "State": "Abuja", "lga_name_x": "Municipal Area Council", "HMO Plan": "Plan1" }, "geometry": { "type": "Point", "coordinates": [ 7.4847097, 9.071942 ] } },
{ "type": "Feature", "properties": { "Unnamed: 0": 173, "Name": "Megasight Eye Clinic", "Address": "Suite 20, Ogb Plaza, Plot 561 Obafemi Awolowo Way, Utako Abuja Abuja", "State": "Abuja", "lga_name_x": "Municipal Area Council", "HMO Plan": "Plan1" }, "geometry": { "type": "Point", "coordinates": [ 7.4487814, 9.0681819 ] } },
{ "type": "Feature", "properties": { "Unnamed: 0": 174, "Name": "Bridge Of Sight Eye Clinic", "Address": "Suit B13 Jabi Plaza", "State": "Abuja", "lga_name_x": "Municipal Area Council", "HMO Plan": "Plan1" }, "geometry": { "type": "Point", "coordinates": [ 7.4229395, 9.0641062 ] } },
{ "type": "Feature", "properties": { "Unnamed: 0": 175, "Name": "Davik Eye Clinic", "Address": "Plot 15/21, Alex Ekwueme Way, Inside Nisa Hospital, Jabi Abuja", "State": "Abuja", "lga_name_x": "Municipal Area Council", "HMO Plan": "Plan1" }, "geometry": { "type": "Point", "coordinates": [ 7.4115661, 9.0676555 ] } },
{ "type": "Feature", "properties": { "Unnamed: 0": 176, "Name": "The Eye Place", "Address": "S2 Second Floor, Alibro Atrium Plaza, 32 Ekukinam Street", "State": "Abuja", "lga_name_x": "Municipal Area Council", "HMO Plan": "Plan1" }, "geometry": { "type": "Point", "coordinates": [ 7.4395544, 9.0667575 ] } },
{ "type": "Feature", "properties": { "Unnamed: 0": 177, "Name": "Metro Eyes Abuja", "Address": "Suite F08, Smart Bridge Plaza,1, Fingesi Road, Utako Abuja", "State": "Abuja", "lga_name_x": "Municipal Area Council", "HMO Plan": "Plan1" }, "geometry": { "type": "Point", "coordinates": [ 7.4374759, 9.0715621 ] } },
{ "type": "Feature", "properties": { "Unnamed: 0": 178, "Name": "Model Eye Clinic", "Address": "Suite A5 Mazado Plaza, Plot 8 Shettima Monguno Crescent Utako, Abuja", "State": "Abuja", "lga_name_x": "Municipal Area Council", "HMO Plan": "Plan1" }, "geometry": { "type": "Point", "coordinates": [ 7.4484814, 9.0601053 ] } },
{ "type": "Feature", "properties": { "Unnamed: 0": 179, "Name": "All About Eyes", "Address": "Off 3Rd Avenue, Gwarinpa", "State": "Abuja", "lga_name_x": "Municipal Area Council", "HMO Plan": "Plan1" }, "geometry": { "type": "Point", "coordinates": [ 7.4048285, 9.1121433 ] } },
{ "type": "Feature", "properties": { "Unnamed: 0": 181, "Name": "Zimah Eye Care", "Address": "Suite 209, Pall Mall 4Th Avenue Gwarinpa Abuja", "State": "Abuja", "lga_name_x": "Municipal Area Council", "HMO Plan": "Plan2" }, "geometry": { "type": "Point", "coordinates": [ 7.3943823, 9.1202927 ] } },
{ "type": "Feature", "properties": { "Unnamed: 0": 182, "Name": "First Vision Eye Clinic", "Address": "B2 Faith Plaza Beside Maxcare Mart Along Lokogoma Expressway Abuja", "State": "Abuja", "lga_name_x": "Municipal Area Council", "HMO Plan": "Plan1" }, "geometry": { "type": "Point", "coordinates": [ 7.458203, 8.9786157 ] } },
{ "type": "Feature", "properties": { "Unnamed: 0": 183, "Name": "Rayfields Eye Care Ltd", "Address": "Suite Ba 5 Apo Sparklight Mall Mohammed Umar Lane Durumi Abuja", "State": "Abuja", "lga_name_x": "Municipal Area Council", "HMO Plan": "Plan2" }, "geometry": { "type": "Point", "coordinates": [ 7.4738123, 9.0171601 ] } },
{ "type": "Feature", "properties": { "Unnamed: 0": 184, "Name": "Florida Eye Clinic", "Address": "Amma House Plot 432, Yakubu Pam Street, Opposite National Hospital, Central Business District", "State": "Abuja", "lga_name_x": "Municipal Area Council", "HMO Plan": "Plan2" }, "geometry": { "type": "Point", "coordinates": [ 7.4653856, 9.0407715 ] } },
{ "type": "Feature", "properties": { "Unnamed: 0": 185, "Name": "Happy Eyes Clinic", "Address": "Suite 11 Extension Jenifa Plaza, Opp. Beck Towers, Samuel Ademolegun Street, Central Area, Abuja", "State": "Abuja", "lga_name_x": "Municipal Area Council", "HMO Plan": "Plan1" }, "geometry": { "type": "Point", "coordinates": [ 7.4790468, 9.0552857 ] } },
{ "type": "Feature", "properties": { "Unnamed: 0": 186, "Name": "East Vision Eye Centre", "Address": "Shop 30 Blessed Plaza, Opp Customs Qtrs, Karu Site", "State": "Abuja", "lga_name_x": "Municipal Area Council", "HMO Plan": "Plan1" }, "geometry": { "type": "Point", "coordinates": [ 7.5634271, 9.0053099 ] } },
{ "type": "Feature", "properties": { "Unnamed: 0": 187, "Name": "Eagles Vision Opthalmics Limited", "Address": "Suite 20 Mazafalla Complex Ooposite Karu Site Round About, Beside Eco Bank Atm Machine", "State": "Abuja", "lga_name_x": "Municipal Area Council", "HMO Plan": "Plan1" }, "geometry": { "type": "Point", "coordinates": [ 7.5724622, 8.9927796 ] } },
{ "type": "Feature", "properties": { "Unnamed: 0": 188, "Name": "Cubic M Eye Clinic", "Address": "195 Apo Dutse Road Off Ladipo Diya Way Gudu Abuja", "State": "Abuja", "lga_name_x": "Municipal Area Council", "HMO Plan": "Plan2" }, "geometry": { "type": "Point", "coordinates": [ 7.4860038, 8.9814118 ] } },
{ "type": "Feature", "properties": { "Unnamed: 0": 189, "Name": "Tulsi Chanrai Foundation Eye Hospital", "Address": "Plot 505 Oladipo Diya Way Kukwaba Cadastral Zone Phase 2 Abuja", "State": "Abuja", "lga_name_x": "Municipal Area Council", "HMO Plan": "Plan1" }, "geometry": { "type": "Point", "coordinates": [ 7.4482442, 9.0210431 ] } },
{ "type": "Feature", "properties": { "Unnamed: 0": 190, "Name": "Primemax Eye Care", "Address": "Suite Gf 008,Israel Plaza, Plot 1077, Adetokunbo Ademola Crescent(Opposite Kokkies Mall) Wuse 2", "State": "Abuja", "lga_name_x": "Municipal Area Council", "HMO Plan": "Plan1" }, "geometry": { "type": "Point", "coordinates": [ 7.4887406, 9.0709428 ] } },
{ "type": "Feature", "properties": { "Unnamed: 0": 191, "Name": "Swiss Vision Eye Clinic", "Address": "H-Medix, Yakubu Gowon Crescent, Abuja", "State": "Abuja", "lga_name_x": "Municipal Area Council", "HMO Plan": "Plan1" }, "geometry": { "type": "Point", "coordinates": [ 7.5265065, 9.0432523 ] } },
{ "type": "Feature", "properties": { "Unnamed: 0": 192, "Name": "Naderk Eye Clinic", "Address": "Plot 16 Premial Academy Crescent Adjacent To King Of King School Fha Lugbe", "State": "Abuja", "lga_name_x": "Municipal Area Council", "HMO Plan": "Plan1" }, "geometry": { "type": "Point", "coordinates": [ 7.3813708, 8.9640864 ] } },
{ "type": "Feature", "properties": { "Unnamed: 0": 194, "Name": "Blossom Vision Eye Clinic", "Address": "Inside Excel Specialist Hospital, Behind Glowing Ages Academy, Kaura District", "State": "Abuja", "lga_name_x": "Municipal Area Council", "HMO Plan": "Plan1" }, "geometry": { "type": "Point", "coordinates": [ 7.436384, 9.0121131 ] } },
{ "type": "Feature", "properties": { "Unnamed: 0": 196, "Name": "Blossom Vision Eye Clinic", "Address": "Garnet Medical Centre, 53B Northstar Garden, Ldakwo District, Lokogoma District", "State": "Abuja", "lga_name_x": "Municipal Area Council", "HMO Plan": "Plan1" }, "geometry": { "type": "Point", "coordinates": [ 7.458203, 8.9786157 ] } },
{ "type": "Feature", "properties": { "Unnamed: 0": 197, "Name": "Skipper Eye Q Super Specialty Eye Hospital", "Address": "No 2A Udo Udoma Street, Asokoro Abuja", "State": "Abuja", "lga_name_x": "Municipal Area Council", "HMO Plan": "Plan2" }, "geometry": { "type": "Point", "coordinates": [ 7.5256223, 9.0565148 ] } },
{ "type": "Feature", "properties": { "Unnamed: 0": 198, "Name": "Favourite Optometry Eye Clinic Ltd", "Address": "Police Hospital Area 1,Garki And Suit F- 18 ,Lokogoma Plaza Opposite Nzube Estate, Lokogoma", "State": "Abuja", "lga_name_x": "Municipal Area Council", "HMO Plan": "Plan1" }, "geometry": { "type": "Point", "coordinates": [ 7.4696026, 8.9658005 ] } },
{ "type": "Feature", "properties": { "Unnamed: 0": 199, "Name": "Central Vision Eye Clinic", "Address": "Suite Gf1-3 Iya Magira Plaza, Plot 22 Ae Ekuinam Street, Opposite Utako Market Fct Abuja", "State": "Abuja", "lga_name_x": "Municipal Area Council", "HMO Plan": "Plan1" }, "geometry": { "type": "Point", "coordinates": [ 7.4464402, 9.0678511 ] } },
{ "type": "Feature", "properties": { "Unnamed: 0": 200, "Name": "Chizy Consult Eye Clinic", "Address": "No 11 Embu Street, Wuse 2", "State": "Abuja", "lga_name_x": "Municipal Area Council", "HMO Plan": "Plan1" }, "geometry": { "type": "Point", "coordinates": [ 7.471336, 9.0788319 ] } },
{ "type": "Feature", "properties": { "Unnamed: 0": 201, "Name": "Smaray Eyecare", "Address": "Suite 5 Mangal Plaza Fcda Area 11", "State": "Abuja", "lga_name_x": "Municipal Area Council", "HMO Plan": "Plan1" }, "geometry": { "type": "Point", "coordinates": [ 7.5013823, 9.0443124 ] } },
{ "type": "Feature", "properties": { "Unnamed: 0": 202, "Name": "Kkmat Eye Clinic", "Address": "Shop 203 Samfa Plaza Ndola Cresent Opposite Old Cac Wuse Zone 5 Ibro Hotel Abuja", "State": "Abuja", "lga_name_x": "Municipal Area Council", "HMO Plan": "Plan1" }, "geometry": { "type": "Point", "coordinates": [ 7.461125, 9.0653559 ] } },
{ "type": "Feature", "properties": { "Unnamed: 0": 203, "Name": "Oculus Prime Eye Care", "Address": "No 48 Samuel Ladoke Akintola Boulevard Garki 2,Abuja", "State": "Abuja", "lga_name_x": "Municipal Area Council", "HMO Plan": "Plan1" }, "geometry": { "type": "Point", "coordinates": [ 7.4892435, 9.0202381 ] } },
{ "type": "Feature", "properties": { "Unnamed: 0": 204, "Name": "Eyeglow Vision Clinic", "Address": "Aminasia Trade Center Opp Kilimanjaro Aminu Kano Crescent Wuse 2", "State": "Abuja", "lga_name_x": "Municipal Area Council", "HMO Plan": "Plan3" }, "geometry": { "type": "Point", "coordinates": [ 7.4719505, 9.0850953 ] } },
{ "type": "Feature", "properties": { "Unnamed: 0": 205, "Name": "Maldor Eyecare Centre", "Address": "38 Gana Street Maitama", "State": "Abuja", "lga_name_x": "Municipal Area Council", "HMO Plan": "Plan1" }, "geometry": { "type": "Point", "coordinates": [ 7.5000327, 9.0784301 ] } },
{ "type": "Feature", "properties": { "Unnamed: 0": 317, "Name": "Eyez Alive Eye Clinic", "Address": "Suite 12, Goshen Plaza Opposite Old Living Faith Junction Lokongoma Phase 1", "State": "Kogi", "lga_name_x": "Municipal Area Council", "HMO Plan": "Plan1" }, "geometry": { "type": "Point", "coordinates": [ 7.458203, 8.9786157 ] } },
{ "type": "Feature", "properties": { "Unnamed: 0": 193, "Name": "Poshel Eye Clinic And Optical Services", "Address": "Shop A5, Azagidi Plaza, Gado Nasko Way 2/1 Kubwa", "State": "Abuja", "lga_name_x": "Bwari", "HMO Plan": "Plan1" }, "geometry": { "type": "Point", "coordinates": [ 7.3554556, 9.149813 ] } },
{ "type": "Feature", "properties": { "Unnamed: 0": 195, "Name": "Rose Of Sharon Eye Clinic", "Address": "Plot 67 Gado Nasko, Beside First Bank Kubwa, Abuja", "State": "Abuja", "lga_name_x": "Bwari", "HMO Plan": "Plan1" }, "geometry": { "type": "Point", "coordinates": [ 7.3285582, 9.1722054 ] } },
{ "type": "Feature", "properties": { "Unnamed: 0": 206, "Name": "Sure Eyes Clinic And Optical Service", "Address": "269 Pipeline, Rumuagholu,Opposite Jbecs Aluminium Off New Airport Road", "State": "Rivers", "lga_name_x": "Obio/Akpor", "HMO Plan": "Plan1" }, "geometry": { "type": "Point", "coordinates": [ 6.9624971, 4.8860552 ] } },
{ "type": "Feature", "properties": { "Unnamed: 0": 208, "Name": "C And C Opticians", "Address": "638, King Perrkule Str, Gra Phase 2", "State": "Rivers", "lga_name_x": "Obio/Akpor", "HMO Plan": "Plan3" }, "geometry": { "type": "Point", "coordinates": [ 6.9974614, 4.8217745 ] } },
{ "type": "Feature", "properties": { "Unnamed: 0": 211, "Name": "Morning Star Eye Clinic", "Address": "67, Rumuola Rd, Gittele Drew House", "State": "Rivers", "lga_name_x": "Obio/Akpor", "HMO Plan": "Plan3" }, "geometry": { "type": "Point", "coordinates": [ 6.9957499, 4.8331393 ] } },
{ "type": "Feature", "properties": { "Unnamed: 0": 215, "Name": "Opti Care Eye Clinic", "Address": "Plot 19 Stadium Road,", "State": "Rivers", "lga_name_x": "Obio/Akpor", "HMO Plan": "Plan1" }, "geometry": { "type": "Point", "coordinates": [ 7.015331, 4.8336969 ] } },
{ "type": "Feature", "properties": { "Unnamed: 0": 223, "Name": "Fimat Eye Clinic", "Address": "No 40 Nta Road Mgbuoba Port Harcourt", "State": "Rivers", "lga_name_x": "Obio/Akpor", "HMO Plan": "Plan3" }, "geometry": { "type": "Point", "coordinates": [ 6.9700182, 4.8569793 ] } },
{ "type": "Feature", "properties": { "Unnamed: 0": 225, "Name": "Dominion Optometry Clinic", "Address": "No 8 Old Aba Road Rumuogba Port Harcourt", "State": "Rivers", "lga_name_x": "Obio/Akpor", "HMO Plan": "Plan3" }, "geometry": { "type": "Point", "coordinates": [ 7.0393011, 4.8396834 ] } },
{ "type": "Feature", "properties": { "Unnamed: 0": 227, "Name": "Beracca Eye Clinic Ltd Ph", "Address": "No 9 Rumuogba Estate Ph", "State": "Rivers", "lga_name_x": "Obio/Akpor", "HMO Plan": "Plan3" }, "geometry": { "type": "Point", "coordinates": [ 7.0347502, 4.8393088 ] } },
{ "type": "Feature", "properties": { "Unnamed: 0": 228, "Name": "Optoville Eye Care Ltd", "Address": "94 Psychiatric Hospital Road Rumuorosi Port Harcourt", "State": "Rivers", "lga_name_x": "Obio/Akpor", "HMO Plan": "Plan1" }, "geometry": { "type": "Point", "coordinates": [ 6.9977895, 4.841307 ] } },
{ "type": "Feature", "properties": { "Unnamed: 0": 231, "Name": "Danic Visions Eye Care", "Address": "56 Iwofe Road Off Ada George /Wofe Junction By Pepperoni Rumuepirikom", "State": "Rivers", "lga_name_x": "Obio/Akpor", "HMO Plan": "Plan1" }, "geometry": { "type": "Point", "coordinates": [ 6.9755295, 4.8290677 ] } },
{ "type": "Feature", "properties": { "Unnamed: 0": 232, "Name": "Distinct Vision Eye Clinic", "Address": "17 Ohiamini Psychiatric Hospital Road Beside Eterna Filling Station Rumuigbo", "State": "Rivers", "lga_name_x": "Obio/Akpor", "HMO Plan": "Plan1" }, "geometry": { "type": "Point", "coordinates": [ 6.9947141, 4.8381205 ] } },
{ "type": "Feature", "properties": { "Unnamed: 0": 233, "Name": "Novelty Eye Care", "Address": "No 2 Lift-Up Close Off Eze Gbakagbaka Woji Port Harcourt", "State": "Rivers", "lga_name_x": "Obio/Akpor", "HMO Plan": "Plan1" }, "geometry": { "type": "Point", "coordinates": [ 7.0479325, 4.8247372 ] } },
{ "type": "Feature", "properties": { "Unnamed: 0": 235, "Name": "Auxano Eye Clinic", "Address": "21 Old Aba Road Beside Total Filling Station", "State": "Rivers", "lga_name_x": "Obio/Akpor", "HMO Plan": "Plan1" }, "geometry": { "type": "Point", "coordinates": [ 7.0410245, 4.8438751 ] } },
{ "type": "Feature", "properties": { "Unnamed: 0": 237, "Name": "Pennuel Eye Clinic", "Address": "278 Ph/Aba Express Way Opposite Shell Residential Area /Rumuokwurusi Bus Stop", "State": "Rivers", "lga_name_x": "Obio/Akpor", "HMO Plan": "Plan1" }, "geometry": { "type": "Point", "coordinates": [ 7.0507654, 4.8513572 ] } },
{ "type": "Feature", "properties": { "Unnamed: 0": 238, "Name": "Beryl Eye Care Ltd", "Address": "No 5 Adc Close Off Ada George Road Port Harcourt", "State": "Rivers", "lga_name_x": "Obio/Akpor", "HMO Plan": "Plan1" }, "geometry": { "type": "Point", "coordinates": [ 7.0468323, 4.8697388 ] } },
{ "type": "Feature", "properties": { "Unnamed: 0": 239, "Name": "Cedar Eye Clinic", "Address": "Health Bridge Complex Abacha Road G.R.A Ph", "State": "Rivers", "lga_name_x": "Obio/Akpor", "HMO Plan": "Plan1" }, "geometry": { "type": "Point", "coordinates": [ 6.9951046, 4.8170859 ] } },
{ "type": "Feature", "properties": { "Unnamed: 0": 241, "Name": "Fornnex Eye Clinic", "Address": "94 Obi Wali Road, Rumuigbo Port Harcourt", "State": "Rivers", "lga_name_x": "Obio/Akpor", "HMO Plan": "Plan1" }, "geometry": { "type": "Point", "coordinates": [ 6.9842048, 4.8599121 ] } },
{ "type": "Feature", "properties": { "Unnamed: 0": 242, "Name": "Pearlmine Eye Care Limited", "Address": "59 Market Road, Rumuomasi", "State": "Rivers", "lga_name_x": "Obio/Akpor", "HMO Plan": "Plan1" }, "geometry": { "type": "Point", "coordinates": [ 7.0254564, 4.8304046 ] } },
{ "type": "Feature", "properties": { "Unnamed: 0": 246, "Name": "Precious Eye Clinic", "Address": "Suit 7,Nawfia Plaz,East-West Road,Rumudara,Portharcourt", "State": "Rivers", "lga_name_x": "Obio/Akpor", "HMO Plan": "Plan1" }, "geometry": { "type": "Point", "coordinates": [ 7.0397724, 4.8634506 ] } },
{ "type": "Feature", "properties": { "Unnamed: 0": 247, "Name": "Je- Solz Eye Center", "Address": "Plot 130 Rumuogba Housing Estate, Opp. Mini Okoro Police Station", "State": "Rivers", "lga_name_x": "Obio/Akpor", "HMO Plan": "Plan1" }, "geometry": { "type": "Point", "coordinates": [ 7.0375639, 4.8376615 ] } },
{ "type": "Feature", "properties": { "Unnamed: 0": 249, "Name": "Vision Experts Eye Clinic Port Harcourt", "Address": "19 Rumuadaolu Market Off Everyday Emporium Rumuola", "State": "Rivers", "lga_name_x": "Obio/Akpor", "HMO Plan": "Plan1" }, "geometry": { "type": "Point", "coordinates": [ 7.0016725, 4.8311239 ] } },
{ "type": "Feature", "properties": { "Unnamed: 0": 250, "Name": "Sightway Eyecare And Optical Services Ltd", "Address": "8 Woji Estate Road", "State": "Rivers", "lga_name_x": "Obio/Akpor", "HMO Plan": "Plan1" }, "geometry": { "type": "Point", "coordinates": [ 7.0579108, 4.8283388 ] } },
{ "type": "Feature", "properties": { "Unnamed: 0": 251, "Name": "Lotag Eye Clinic", "Address": "274 Event Centre, 111 Airport Road, Opp Matrix Filling Station, Rumuodumaya", "State": "Rivers", "lga_name_x": "Obio/Akpor", "HMO Plan": "Plan1" }, "geometry": { "type": "Point", "coordinates": [ 7.0021205, 4.8884813 ] } },
{ "type": "Feature", "properties": { "Unnamed: 0": 252, "Name": "Pristine Eyecare Ltd", "Address": "Plot 12 Timothy Lane, Rumuola", "State": "Rivers", "lga_name_x": "Obio/Akpor", "HMO Plan": "Plan1" }, "geometry": { "type": "Point", "coordinates": [ 7.0044254, 4.8340816 ] } },
{ "type": "Feature", "properties": { "Unnamed: 0": 254, "Name": "Beulah Eyecare Services And Consultants", "Address": "3 Bons Avenue, Rumuogba", "State": "Rivers", "lga_name_x": "Obio/Akpor", "HMO Plan": "Plan1" }, "geometry": { "type": "Point", "coordinates": [ 7.0404345, 4.8426791 ] } },
{ "type": "Feature", "properties": { "Unnamed: 0": 256, "Name": "Luxterra Eye Clinic", "Address": "Suite 22, Hilltop Plaza,Trans-Woji Road,Portharcourt", "State": "Rivers State", "lga_name_x": "Obio/Akpor", "HMO Plan": "Plan1" }, "geometry": { "type": "Point", "coordinates": [ 7.0557562, 4.8236574 ] } },
{ "type": "Feature", "properties": { "Unnamed: 0": 257, "Name": "Amazon Eye Clinic", "Address": "Paragon Clinic,#3 Covenant Estate Rumuokwurushi Behind Shell Ra", "State": "Rivers", "lga_name_x": "Obio/Akpor", "HMO Plan": "Plan1" }, "geometry": { "type": "Point", "coordinates": [ 7.0538774, 4.8554141 ] } },
{ "type": "Feature", "properties": { "Unnamed: 0": 258, "Name": "Perfect Image Eye Care", "Address": "9B Eligbam Road Off Rumuola Road Portharcourt Inside Image Diagnostics", "State": "Privers State", "lga_name_x": "Obio/Akpor", "HMO Plan": "Plan1" }, "geometry": { "type": "Point", "coordinates": [ 6.9951583, 4.832171 ] } },
{ "type": "Feature", "properties": { "Unnamed: 0": 259, "Name": "Main Vision Eye Clinic", "Address": "Ejims Plaza, 13 Trans Amadi Layout Rumuobiokani", "State": "Rivers", "lga_name_x": "Obio/Akpor", "HMO Plan": "Plan1" }, "geometry": { "type": "Point", "coordinates": [ 7.032236, 4.8362739 ] } },
{ "type": "Feature", "properties": { "Unnamed: 0": 261, "Name": "Bitsom Eye Hospital", "Address": "4 Nembe Road,Rumuibekwe Estate,Portharcourt", "State": "Rivers State", "lga_name_x": "Obio/Akpor", "HMO Plan": "Plan1" }, "geometry": { "type": "Point", "coordinates": [ 7.0528326, 4.8483342 ] } },
{ "type": "Feature", "properties": { "Unnamed: 0": 207, "Name": "Doxa Eye Clinic", "Address": "319 Aba Road, Opposite Mtn Office, Oil Mill", "State": "Rivers", "lga_name_x": "Port-Harcourt", "HMO Plan": "Plan3" }, "geometry": { "type": "Point", "coordinates": [ 7.0097227, 4.8175205 ] } },
{ "type": "Feature", "properties": { "Unnamed: 0": 210, "Name": "Lavinda Eye Specialist Hospital", "Address": "Omurbo Close, Off Campbell Avenue Off Peter Odili Road Port Harcourt", "State": "Rivers", "lga_name_x": "Port-Harcourt", "HMO Plan": "Plan1" }, "geometry": { "type": "Point", "coordinates": [ 7.0437341, 4.7912074 ] } },
{ "type": "Feature", "properties": { "Unnamed: 0": 212, "Name": "Truvision Eye Care Centre", "Address": "Opposite Skybank, 112 Aba Road, Nkpogu, Port Harcourt", "State": "Rivers", "lga_name_x": "Port-Harcourt", "HMO Plan": "Plan1" }, "geometry": { "type": "Point", "coordinates": [ 7.0086188, 4.8041837 ] } },
{ "type": "Feature", "properties": { "Unnamed: 0": 213, "Name": "Cynard Eye Clinic", "Address": "Plot 85/86 Fha, Beside Dietams International School, Odili Road, Trans Amadi, Port Harcourt", "State": "Rivers", "lga_name_x": "Port-Harcourt", "HMO Plan": "Plan3" }, "geometry": { "type": "Point", "coordinates": [ 7.0336018, 4.7972276 ] } },
{ "type": "Feature", "properties": { "Unnamed: 0": 214, "Name": "Perfect Sight Limited", "Address": "Vicon House, 80 Stadium Road, Port Harcourt", "State": "Rivers", "lga_name_x": "Port-Harcourt", "HMO Plan": "Plan3" }, "geometry": { "type": "Point", "coordinates": [ 7.0155089, 4.8285869 ] } },
{ "type": "Feature", "properties": { "Unnamed: 0": 216, "Name": "The Eye Surgery And Laser Centre", "Address": "5 Obanoban Street Off Evo Road Gra Phase Ii Port-Harcourt Rivers State", "State": "Rivers", "lga_name_x": "Port-Harcourt", "HMO Plan": "Plan5" }, "geometry": { "type": "Point", "coordinates": [ 7.0018806, 4.8178272 ] } },
{ "type": "Feature", "properties": { "Unnamed: 0": 217, "Name": "Opti Vue Eye Clinic Limited", "Address": "3,Obodo Street,Old Gra, Port Harcourt", "State": "Rivers", "lga_name_x": "Port-Harcourt", "HMO Plan": "Plan1" }, "geometry": { "type": "Point", "coordinates": [ 7.0095263, 4.7928122 ] } },
{ "type": "Feature", "properties": { "Unnamed: 0": 219, "Name": "Vonnie Vision Eyecare", "Address": "Close8 Plot 2B Elekahia Housing Estate", "State": "Rivers", "lga_name_x": "Port-Harcourt", "HMO Plan": "Plan1" }, "geometry": { "type": "Point", "coordinates": [ 7.0265444, 4.8184854 ] } },
{ "type": "Feature", "properties": { "Unnamed: 0": 220, "Name": "Envision Eye Clinic", "Address": "50 Mbonu Street, D/Line, Port Harcourt", "State": "Rivers", "lga_name_x": "Port-Harcourt", "HMO Plan": "Plan1" }, "geometry": { "type": "Point", "coordinates": [ 7.0043647, 4.8000973 ] } },
{ "type": "Feature", "properties": { "Unnamed: 0": 221, "Name": "Platinum Eye Care", "Address": "80A Dr Peter Odili Road, Trans Amadi", "State": "Rivers", "lga_name_x": "Port-Harcourt", "HMO Plan": "Plan3" }, "geometry": { "type": "Point", "coordinates": [ 7.0335251, 4.7958821 ] } },
{ "type": "Feature", "properties": { "Unnamed: 0": 222, "Name": "The Ophthalmic Specialist Limited", "Address": "9 Evo Road, Gra, Phase 2", "State": "Rivers", "lga_name_x": "Port-Harcourt", "HMO Plan": "Plan3" }, "geometry": { "type": "Point", "coordinates": [ 7.0043834, 4.817571 ] } },
{ "type": "Feature", "properties": { "Unnamed: 0": 224, "Name": "Josphinns Eye Clinic", "Address": "No 14 Khana Street Dline Off Olu Obasanjo Road Port Harcourt", "State": "Rivers", "lga_name_x": "Port-Harcourt", "HMO Plan": "Plan3" }, "geometry": { "type": "Point", "coordinates": [ 7.0029334, 4.8086298 ] } },
{ "type": "Feature", "properties": { "Unnamed: 0": 229, "Name": "Vision Care Eye Clinic", "Address": "Plot 131/132 Staduim Road ,Rumumasi", "State": "Rivers", "lga_name_x": "Port-Harcourt", "HMO Plan": "Plan1" }, "geometry": { "type": "Point", "coordinates": [ 7.0192575, 4.8222962 ] } },
{ "type": "Feature", "properties": { "Unnamed: 0": 230, "Name": "Rambod Optometry Practice", "Address": "5 Agudama Street D/Line Port Harcourt", "State": "Rivers", "lga_name_x": "Port-Harcourt", "HMO Plan": "Plan1" }, "geometry": { "type": "Point", "coordinates": [ 7.006306, 4.803482 ] } },
{ "type": "Feature", "properties": { "Unnamed: 0": 234, "Name": "City Specialist Eye Clinic And Surgery", "Address": "Plot 133 Nlng Road Near Amadi Ama Round About Port Harcourt", "State": "Rivers", "lga_name_x": "Port-Harcourt", "HMO Plan": "Plan1" }, "geometry": { "type": "Point", "coordinates": [ 7.0255302, 4.7965753 ] } },
{ "type": "Feature", "properties": { "Unnamed: 0": 236, "Name": "Optivue Eyecare Ltd", "Address": "3 Igbodo Street, Old Gra Port Harcourt", "State": "Rivers", "lga_name_x": "Port-Harcourt", "HMO Plan": "Plan3" }, "geometry": { "type": "Point", "coordinates": [ 7.0041149, 4.7900573 ] } },
{ "type": "Feature", "properties": { "Unnamed: 0": 240, "Name": "Photizo Eye Clinic", "Address": "No 7 Ogbuga Street, Off Eastern By Pass Ogbunabali", "State": "Rivers", "lga_name_x": "Port-Harcourt", "HMO Plan": "Plan1" }, "geometry": { "type": "Point", "coordinates": [ 7.0192011, 4.7894611 ] } },
{ "type": "Feature", "properties": { "Unnamed: 0": 243, "Name": "Spectrum Eye Clinic", "Address": "Ola Aba Road, Obia Port Harcourt", "State": "Rivers", "lga_name_x": "Port-Harcourt", "HMO Plan": "Plan1" }, "geometry": { "type": "Point", "coordinates": [ 7.0108094, 4.8181963 ] } },
{ "type": "Feature", "properties": { "Unnamed: 0": 244, "Name": "Gracejerry Eye Care Centre", "Address": "4 Prof Okujagu Street, Opp Doxa Junction, Off Peter Odili Road, Port Harcourt", "State": "Rivers", "lga_name_x": "Port-Harcourt", "HMO Plan": "Plan1" }, "geometry": { "type": "Point", "coordinates": [ 7.0470945, 4.7994882 ] } },
{ "type": "Feature", "properties": { "Unnamed: 0": 245, "Name": "View Finders Eye Clinic", "Address": "Amazing Grace Plaza 103 Woji Road Port Harcourt", "State": "Rivers", "lga_name_x": "Port-Harcourt", "HMO Plan": "Plan1" }, "geometry": { "type": "Point", "coordinates": [ 7.0049364, 4.8064769 ] } },
{ "type": "Feature", "properties": { "Unnamed: 0": 248, "Name": "Flomat Eyecare", "Address": "222 Aba Road Beside Slot Waterlines", "State": "Rivers", "lga_name_x": "Port-Harcourt", "HMO Plan": "Plan1" }, "geometry": { "type": "Point", "coordinates": [ 7.0081994, 4.820538 ] } },
{ "type": "Feature", "properties": { "Unnamed: 0": 253, "Name": "Vixion Home Eye Clinic", "Address": "0 Odili Rd, Trans Amadi", "State": "Rivers", "lga_name_x": "Port-Harcourt", "HMO Plan": "Plan1" }, "geometry": { "type": "Point", "coordinates": [ 7.0509162, 4.7996203 ] } },
{ "type": "Feature", "properties": { "Unnamed: 0": 255, "Name": "The Pegasus Eye Clinic", "Address": "House 6,Second Street, Elekahia Housing Estate", "State": "Rivers State", "lga_name_x": "Port-Harcourt", "HMO Plan": "Plan1" }, "geometry": { "type": "Point", "coordinates": [ 7.0243067, 4.8145309 ] } },
{ "type": "Feature", "properties": { "Unnamed: 0": 300, "Name": "Partakers Eye Clinic", "Address": "30 Macauley /Azikwe Road", "State": "Abia", "lga_name_x": "Port-Harcourt", "HMO Plan": "Plan1" }, "geometry": { "type": "Point", "coordinates": [ 7.0116009, 4.7754339 ] } },
{ "type": "Feature", "properties": { "Unnamed: 0": 209, "Name": "Garet Eye Clinic Ltd", "Address": "61A, Aba Rd", "State": "Rivers", "lga_name_x": "Fagge", "HMO Plan": "Plan3" }, "geometry": { "type": "Point", "coordinates": [ 8.5388326, 12.023538 ] } },
{ "type": "Feature", "properties": { "Unnamed: 0": 218, "Name": "Pan Oj Optical", "Address": "63 Mission Road,Bonny Roundabout,Bonny Island,Rivers State.", "State": "Rivers", "lga_name_x": "Bonny", "HMO Plan": "Plan2" }, "geometry": { "type": "Point", "coordinates": [ 7.1669108, 4.4450169 ] } },
{ "type": "Feature", "properties": { "Unnamed: 0": 226, "Name": "Anuzi Eye Clinic", "Address": "309 Old Refinery Road Elelenwo, Port Harcourt", "State": "Rivers", "lga_name_x": "Eleme", "HMO Plan": "Plan1" }, "geometry": { "type": "Point", "coordinates": [ 7.0796084, 4.8257128 ] } },
{ "type": "Feature", "properties": { "Unnamed: 0": 260, "Name": "Olivet Eye Clinic Limited", "Address": "312 Ikwerre Road By Market Junction, Mile 4, Portharcourt", "State": "Rivers State", "lga_name_x": "Okrika", "HMO Plan": "Plan1" }, "geometry": { "type": "Point", "coordinates": [ 7.0692731, 4.8105547 ] } },
{ "type": "Feature", "properties": { "Unnamed: 0": 262, "Name": "Soteria Eye", "Address": "28 Kotie Street, Off Okumagba Avenue", "State": "Delta", "lga_name_x": "Warri South", "HMO Plan": "Plan3" }, "geometry": { "type": "Point", "coordinates": [ 5.7462444, 5.5305844 ] } },
{ "type": "Feature", "properties": { "Unnamed: 0": 263, "Name": "Romee Eye Clinic Limited", "Address": "No 4 Okumagba Avenue By Olomu Junction Opposite Total Filling Station Warri", "State": "Delta", "lga_name_x": "Warri South", "HMO Plan": "Plan3" }, "geometry": { "type": "Point", "coordinates": [ 5.7407304, 5.5309045 ] } },
{ "type": "Feature", "properties": { "Unnamed: 0": 264, "Name": "Abelo Eye Clinic", "Address": "114, Warri/Sapele Road, Warri", "State": "Delta", "lga_name_x": "Warri South", "HMO Plan": "Plan1" }, "geometry": { "type": "Point", "coordinates": [ 5.7549003, 5.5162448 ] } },
{ "type": "Feature", "properties": { "Unnamed: 0": 266, "Name": "Flomat Eye Clinic", "Address": "104, Airport Road ,Warri", "State": "Delta", "lga_name_x": "Warri South", "HMO Plan": "Plan1" }, "geometry": { "type": "Point", "coordinates": [ 5.7670325, 5.5418857 ] } },
{ "type": "Feature", "properties": { "Unnamed: 0": 267, "Name": "Hema Eye Clinic Limited", "Address": "93B, Ibusa Road, Asaba", "State": "Delta", "lga_name_x": "Oshimili South", "HMO Plan": "Plan1" }, "geometry": { "type": "Point", "coordinates": [ 6.7232904, 6.1956879 ] } },
{ "type": "Feature", "properties": { "Unnamed: 0": 269, "Name": "Giftedhands Optical Centre", "Address": "No 44 Dennis Osadebe Way Asaba; No 4. Fear God Street, Opposite Blssed Plastics , Bonsac,Asaba", "State": "Delta", "lga_name_x": "Oshimili South", "HMO Plan": "Plan1" }, "geometry": { "type": "Point", "coordinates": [ 6.7435482, 6.1888557 ] } },
{ "type": "Feature", "properties": { "Unnamed: 0": 270, "Name": "Ailen Eye Clinic", "Address": "395 Nnebisi Road, Lion Hosue, Asaba", "State": "Delta", "lga_name_x": "Oshimili South", "HMO Plan": "Plan3" }, "geometry": { "type": "Point", "coordinates": [ 6.7151004, 6.2073234 ] } },
{ "type": "Feature", "properties": { "Unnamed: 0": 268, "Name": "Eyemed Eyecare", "Address": "Suite 13, Plato Plaza Dbs Road Off Summit Road", "State": "Delta", "lga_name_x": "Oshimili North", "HMO Plan": "Plan1" }, "geometry": { "type": "Point", "coordinates": [ 6.6892854, 6.2046819 ] } },
{ "type": "Feature", "properties": { "Unnamed: 0": 271, "Name": "St Stephen Specialist Eye Clinic", "Address": "314 Ughelli Patani Road", "State": "Delta", "lga_name_x": "Ughelli North", "HMO Plan": "Plan1" }, "geometry": { "type": "Point", "coordinates": [ 6.0042311, 5.5014621 ] } },
{ "type": "Feature", "properties": { "Unnamed: 0": 272, "Name": "Myke Eye Clinic", "Address": "28 Umusadege Road", "State": "Delta", "lga_name_x": "Ndokwa West", "HMO Plan": "Plan1" }, "geometry": { "type": "Point", "coordinates": [ 6.4278843, 5.6900502 ] } },
{ "type": "Feature", "properties": { "Unnamed: 0": 273, "Name": "Cee Jay Vision Centre", "Address": "7 Ekpo Obot Street, Uyo", "State": "Akwa Ibom", "lga_name_x": "Uyo", "HMO Plan": "Plan1" }, "geometry": { "type": "Point", "coordinates": [ 7.933873, 5.0319171 ] } },
{ "type": "Feature", "properties": { "Unnamed: 0": 274, "Name": "San Dominique Hospital And Eye Center", "Address": "Plot 1, M Line, Ewet Housing Estate", "State": "Akwa Ibom", "lga_name_x": "Uyo", "HMO Plan": "Plan1" }, "geometry": { "type": "Point", "coordinates": [ 7.9506409, 5.0100324 ] } },
{ "type": "Feature", "properties": { "Unnamed: 0": 275, "Name": "Ceejay Vision Centre", "Address": "7, Ekpo Obot Street,Off Oron Road,Uyo. Akwa Ibom", "State": "Akwa Ibom", "lga_name_x": "Uyo", "HMO Plan": "Plan3" }, "geometry": { "type": "Point", "coordinates": [ 7.933873, 5.0319171 ] } },
{ "type": "Feature", "properties": { "Unnamed: 0": 276, "Name": "Majesty Eye Clinic", "Address": "60 Wellington Bassey Way", "State": "Akwa Ibom", "lga_name_x": "Uyo", "HMO Plan": "Plan1" }, "geometry": { "type": "Point", "coordinates": [ 7.9317672, 5.0372383 ] } },
{ "type": "Feature", "properties": { "Unnamed: 0": 278, "Name": "Alpha Vision International Eye Center", "Address": "No 2 Udosen Uko Street Off Nwaniba Road", "State": "Akwa Ibom", "lga_name_x": "Uyo", "HMO Plan": "Plan1" }, "geometry": { "type": "Point", "coordinates": [ 7.9358046, 5.0261699 ] } },
{ "type": "Feature", "properties": { "Unnamed: 0": 279, "Name": "Crispvision Eye Clinic", "Address": "23B Uqua Road, Eket", "State": "Akwa Ibom", "lga_name_x": "Eket", "HMO Plan": "Plan1" }, "geometry": { "type": "Point", "coordinates": [ 7.9396052, 4.6483723 ] } },
{ "type": "Feature", "properties": { "Unnamed: 0": 280, "Name": "Prime Optical And Eye Clinic", "Address": "72 Ihama Road Gra Benin City", "State": "Edo", "lga_name_x": "Oredo", "HMO Plan": "Plan3" }, "geometry": { "type": "Point", "coordinates": [ 5.6199114, 6.3068194 ] } },
{ "type": "Feature", "properties": { "Unnamed: 0": 281, "Name": "Mayos Eye Clinic", "Address": "No 3 Triangle Avenue Between Urubi And Wire Road", "State": "Edo", "lga_name_x": "Oredo", "HMO Plan": "Plan1" }, "geometry": { "type": "Point", "coordinates": [ 5.619953, 6.3512613 ] } },
{ "type": "Feature", "properties": { "Unnamed: 0": 283, "Name": "Daniel And David Eye", "Address": "No 71, First Ugbor Road, Off Ugbor Village, Gra", "State": "Edo", "lga_name_x": "Oredo", "HMO Plan": "Plan1" }, "geometry": { "type": "Point", "coordinates": [ 5.6083998, 6.2844218 ] } },
{ "type": "Feature", "properties": { "Unnamed: 0": 282, "Name": "Lozi Praise Vision Care And Optical Services", "Address": "236 Ugbowo-Lagos Road", "State": "Edo", "lga_name_x": "Egor", "HMO Plan": "Plan1" }, "geometry": { "type": "Point", "coordinates": [ 5.6095699, 6.38574 ] } },
{ "type": "Feature", "properties": { "Unnamed: 0": 284, "Name": "Tamaraemi Eye Clinc", "Address": "Plot 2 Dsp Alamieyeseigha Way,Off Hospital Road,Nimc Office ,Yenagoa", "State": "Bayelsa", "lga_name_x": "Yenegoa", "HMO Plan": "Plan1" }, "geometry": { "type": "Point", "coordinates": [ 6.2670768, 4.9349 ] } },
{ "type": "Feature", "properties": { "Unnamed: 0": 285, "Name": "Niger Optical Centre Limited", "Address": "39, Zik Avenue", "State": "Enugu", "lga_name_x": "Enugu South", "HMO Plan": "Plan3" }, "geometry": { "type": "Point", "coordinates": [ 7.4941225, 6.4321416 ] } },
{ "type": "Feature", "properties": { "Unnamed: 0": 291, "Name": "Springfield Eye Care", "Address": "200, Agbani Road, Beside Mayor Bus Stop", "State": "Enugu", "lga_name_x": "Enugu South", "HMO Plan": "Plan1" }, "geometry": { "type": "Point", "coordinates": [ 7.4955332, 6.4090136 ] } },
{ "type": "Feature", "properties": { "Unnamed: 0": 286, "Name": "The Eye Specialist Hospital", "Address": "11 Church View, Gra, Enugu", "State": "Enugu", "lga_name_x": "Enugu North", "HMO Plan": "Plan1" }, "geometry": { "type": "Point", "coordinates": [ 7.5033938, 6.4567355 ] } },
{ "type": "Feature", "properties": { "Unnamed: 0": 287, "Name": "Eye Zone Limited", "Address": "No. 13 Ifite Ukpo Street New Haven By Sabbath Bus Stop.", "State": "Enugu", "lga_name_x": "Enugu North", "HMO Plan": "Plan3" }, "geometry": { "type": "Point", "coordinates": [ 7.5314061, 6.4558942 ] } },
{ "type": "Feature", "properties": { "Unnamed: 0": 288, "Name": "Legend Eye Clinic", "Address": "450 Ogui Road, Swissgarde Plaza, Opposite Otigba Gardens, Enugu", "State": "Enugu", "lga_name_x": "Enugu North", "HMO Plan": "Plan1" }, "geometry": { "type": "Point", "coordinates": [ 7.5097741, 6.4590836 ] } },
{ "type": "Feature", "properties": { "Unnamed: 0": 289, "Name": "Crystaview Eye Services", "Address": "4 Ok Dallas Blvd, Pascan Jake, Independence Layout", "State": "Enugu", "lga_name_x": "Enugu North", "HMO Plan": "Plan1" }, "geometry": { "type": "Point", "coordinates": [ 7.5248175, 6.4351103 ] } },
{ "type": "Feature", "properties": { "Unnamed: 0": 290, "Name": "Helena Eye Care", "Address": "14, Hospital Avenue, Gra, Enugu", "State": "Enugu", "lga_name_x": "Enugu North", "HMO Plan": "Bronze" }, "geometry": { "type": "Point", "coordinates": [ 7.4936967, 6.4597649 ] } },
{ "type": "Feature", "properties": { "Unnamed: 0": 292, "Name": "Metro Eyes Limited Ibadan", "Address": "1St Floor No. 42 Kenneth Dike Road (Secretariat Road), Favos B-Stop, Bodija", "State": "Oyo", "lga_name_x": "Ibadan North", "HMO Plan": "Plan1" }, "geometry": { "type": "Point", "coordinates": [ 3.9111601, 7.4181498 ] } },
{ "type": "Feature", "properties": { "Unnamed: 0": 294, "Name": "Foresight Specialist Eye Clinic", "Address": "14 Awosika Avenue Old Bodija", "State": "Oyo", "lga_name_x": "Ibadan North", "HMO Plan": "Plan1" }, "geometry": { "type": "Point", "coordinates": [ 3.9060996, 7.422051 ] } },
{ "type": "Feature", "properties": { "Unnamed: 0": 293, "Name": "Full Vision Optometry Clinic", "Address": "4 Egunjemi Street Acb Building Dugbe Alawo", "State": "Oyo", "lga_name_x": "Ibadan North West", "HMO Plan": "Plan1" }, "geometry": { "type": "Point", "coordinates": [ 3.8795305, 7.387562 ] } },
{ "type": "Feature", "properties": { "Unnamed: 0": 295, "Name": "Sharpview Optometric Clinic", "Address": "64, Lagos Road, Elewura Bus Stop, Challenge, Ibadan", "State": "Oyo", "lga_name_x": "Ibadan South West", "HMO Plan": "Plan1" }, "geometry": { "type": "Point", "coordinates": [ 3.8738845, 7.3850623 ] } },
{ "type": "Feature", "properties": { "Unnamed: 0": 297, "Name": "Living Word Mission Eye Clinic", "Address": "7, Umuocham Rd, Off Aba Owerri Rd", "State": "Abia", "lga_name_x": "Osisioma Ngwa", "HMO Plan": "Plan1" }, "geometry": { "type": "Point", "coordinates": [ 7.3499256, 5.1377384 ] } },
{ "type": "Feature", "properties": { "Unnamed: 0": 298, "Name": "Excel Global Eye Clinic", "Address": "22 Tenant Road ,Aba", "State": "Abia", "lga_name_x": "Aba South", "HMO Plan": "Plan1" }, "geometry": { "type": "Point", "coordinates": [ 7.3623313, 5.107461 ] } },
{ "type": "Feature", "properties": { "Unnamed: 0": 299, "Name": "Global Eye Clinic", "Address": "140 Aba-Owerri Road Inside Rufus Obi Chemist Ltd", "State": "Abia", "lga_name_x": "Aba North", "HMO Plan": "Plan1" }, "geometry": { "type": "Point", "coordinates": [ 7.3554089, 5.1337837 ] } },
{ "type": "Feature", "properties": { "Unnamed: 0": 301, "Name": "Camela Eye Centre", "Address": "126, Okigwe Rd", "State": "Imo", "lga_name_x": "Mbatoli", "HMO Plan": "Plan3" }, "geometry": { "type": "Point", "coordinates": [ 7.1325656, 5.6213631 ] } },
{ "type": "Feature", "properties": { "Unnamed: 0": 302, "Name": "Sheerah Vision Eye Clinic", "Address": "1 Umez-Eronini Street, Ikenegbu Layout", "State": "Imo", "lga_name_x": "Owerri Municipal", "HMO Plan": "Plan3" }, "geometry": { "type": "Point", "coordinates": [ 7.0391828, 5.4883758 ] } },
{ "type": "Feature", "properties": { "Unnamed: 0": 303, "Name": "Silverspring Eyecare Ltd", "Address": "Plot 12 Ikenegbu Extension, Off Mcc Road, By Lodan Bus Stop, Owerri", "State": "Imo", "lga_name_x": "Owerri Municipal", "HMO Plan": "Plan1" }, "geometry": { "type": "Point", "coordinates": [ 7.041667, 5.4900388 ] } },
{ "type": "Feature", "properties": { "Unnamed: 0": 304, "Name": "Day Crystal Clinic And Maternity", "Address": "6A Makera Road Kakuri Kaduna", "State": "Kaduna", "lga_name_x": "Kaduna North", "HMO Plan": "Plan1" }, "geometry": { "type": "Point", "coordinates": [ 7.4287285, 10.5108477 ] } },
{ "type": "Feature", "properties": { "Unnamed: 0": 326, "Name": "Thelish Eye Centre", "Address": "13 B Lafia Road,Kaduna", "State": "Kaduna", "lga_name_x": "Kaduna North", "HMO Plan": "Plan1" }, "geometry": { "type": "Point", "coordinates": [ 7.4406085, 10.5260188 ] } },
{ "type": "Feature", "properties": { "Unnamed: 0": 332, "Name": "Michy Clinical Services ,Td", "Address": "Suite 1 Powa Cmplx By Police Clinic, Jos Road", "State": "Nasarawa", "lga_name_x": "Kaduna North", "HMO Plan": "Plan1" }, "geometry": { "type": "Point", "coordinates": [ 7.4305217, 10.5142051 ] } },
{ "type": "Feature", "properties": { "Unnamed: 0": 305, "Name": "Ola Oluwa Eye Clinic", "Address": "A5/32 , Hospital Road, Opp. O.O.U.T.H, Sagamu, Ogun State.", "State": "Ogun", "lga_name_x": "Shagamu", "HMO Plan": "Plan1" }, "geometry": { "type": "Point", "coordinates": [ 3.6527192, 6.8487753 ] } },
{ "type": "Feature", "properties": { "Unnamed: 0": 306, "Name": "Elohim Eye Specialist Clinic", "Address": "Abiola Way Near Madojutimi Restaurant", "State": "Ogun", "lga_name_x": "Abeokuta South", "HMO Plan": "Plan1" }, "geometry": { "type": "Point", "coordinates": [ 3.3712678, 7.1624053 ] } },
{ "type": "Feature", "properties": { "Unnamed: 0": 308, "Name": "Efe Igho Opticians And Eye Clinic", "Address": "41 Tinubu Street Beside Arocom Ita Eko Abeokuta", "State": "Ogun", "lga_name_x": "Abeokuta South", "HMO Plan": "Plan1" }, "geometry": { "type": "Point", "coordinates": [ 3.3351139, 7.1414488 ] } },
{ "type": "Feature", "properties": { "Unnamed: 0": 309, "Name": "Niger Optical Services Co.Nig Ltd", "Address": "No 8 Owerri Road Nnewi Anambra State", "State": "Anambra", "lga_name_x": "Nnewi North", "HMO Plan": "Plan1" }, "geometry": { "type": "Point", "coordinates": [ 6.9165915, 6.009819 ] } },
{ "type": "Feature", "properties": { "Unnamed: 0": 310, "Name": "Hephzibah Eye Clinic Anambra", "Address": "40 High Court Road By Awka ,Anambra State", "State": "Anambra", "lga_name_x": "Awka South", "HMO Plan": "Plan1" }, "geometry": { "type": "Point", "coordinates": [ 7.0821162, 6.2220043 ] } },
{ "type": "Feature", "properties": { "Unnamed: 0": 311, "Name": "Ivory Eye Clinic", "Address": "Suite Ff3 Pacific Complex, No. 9 Awka Road,Onitsha, Anambra State.", "State": "Anambra", "lga_name_x": "Onitsha North", "HMO Plan": "Plan1" }, "geometry": { "type": "Point", "coordinates": [ 6.7945222, 6.1546756 ] } },
{ "type": "Feature", "properties": { "Unnamed: 0": 312, "Name": "Liha Eye Clinic", "Address": "Along Ziks Avenue,Near Finotel Hotel,Agu-Awka", "State": "Anambra", "lga_name_x": "Onitsha South", "HMO Plan": "Plan1" }, "geometry": { "type": "Point", "coordinates": [ 6.7765633, 6.1377579 ] } },
{ "type": "Feature", "properties": { "Unnamed: 0": 313, "Name": "Benita Eye Clinic", "Address": "10, Mayne Avenue, Calabar", "State": "Cross River", "lga_name_x": "Calabar South", "HMO Plan": "Plan1" }, "geometry": { "type": "Point", "coordinates": [ 8.3305455, 4.9480551 ] } },
{ "type": "Feature", "properties": { "Unnamed: 0": 314, "Name": "St Cecilia Eye Clinic", "Address": "Venetian Mall, Murtala Mohammed Highway, Calabar", "State": "Cross River", "lga_name_x": "Calabar Municipal", "HMO Plan": "Plan1" }, "geometry": { "type": "Point", "coordinates": [ 8.3417006, 4.9757165 ] } },
{ "type": "Feature", "properties": { "Unnamed: 0": 315, "Name": "Mego Vision", "Address": "54 Ndidem Usang Iso Road", "State": "Cross River", "lga_name_x": "Calabar Municipal", "HMO Plan": "Plan1" }, "geometry": { "type": "Point", "coordinates": [ 8.3391546, 4.9712246 ] } },
{ "type": "Feature", "properties": { "Unnamed: 0": 316, "Name": "St Cecilia Eye Clinic", "Address": "Venetian Mall, Murtala Mohammed Highway, Calabar", "State": "Cross River", "lga_name_x": "Calabar Municipal", "HMO Plan": "Plan1" }, "geometry": { "type": "Point", "coordinates": [ 8.3417006, 4.9757165 ] } },
{ "type": "Feature", "properties": { "Unnamed: 0": 318, "Name": "Lighthouse Medical Eye And Specialist Laser Centre", "Address": "Kogi Hotel Round About Gra Lokoja", "State": "Kogi", "lga_name_x": "Lokoja", "HMO Plan": "Plan1" }, "geometry": { "type": "Point", "coordinates": [ 6.7442649, 7.7931558 ] } },
{ "type": "Feature", "properties": { "Unnamed: 0": 319, "Name": "Carewell Eye Clinic Ltd", "Address": "No 6 Saliu Ibrahim Road Opposite Deputy Governor Office Lokoja Kogi State", "State": "Kogi", "lga_name_x": "Lokoja", "HMO Plan": "Plan2" }, "geometry": { "type": "Point", "coordinates": [ 6.7325386, 7.8005186 ] } },
{ "type": "Feature", "properties": { "Unnamed: 0": 320, "Name": "Dandars Specialist Eye Clinic Lokoja", "Address": "Gain Plaza No 2 Marine Road, Opp Niwa Restaurant, Lokoja", "State": "Kogi", "lga_name_x": "Lokoja", "HMO Plan": "Plan1" }, "geometry": { "type": "Point", "coordinates": [ 6.745064, 7.8016211 ] } },
{ "type": "Feature", "properties": { "Unnamed: 0": 321, "Name": "Britaview Eye Clinic", "Address": "102A Hospital Road, Akure", "State": "Ondo", "lga_name_x": "Akure South", "HMO Plan": "Plan1" }, "geometry": { "type": "Point", "coordinates": [ 5.1955796, 7.2439598 ] } },
{ "type": "Feature", "properties": { "Unnamed: 0": 322, "Name": "Tim Unity Specialist Hospital And Eye Clinic Limited", "Address": "Oke Orire Close Opposite Fcmb Olukayode House, Oluwatuyi Road, Akure, Ondo State", "State": "Ondo", "lga_name_x": "Akure South", "HMO Plan": "Plan1" }, "geometry": { "type": "Point", "coordinates": [ 5.1959668, 7.2394844 ] } },
{ "type": "Feature", "properties": { "Unnamed: 0": 323, "Name": "Emmanuel Specialists Hospital Ile Ife", "Address": "E27 Obayemi Street, Agborogboro Layout, Oranfe, Ilesha Road, Ile-Ife", "State": "Osun", "lga_name_x": "Ife Central", "HMO Plan": "Plan1" }, "geometry": { "type": "Point", "coordinates": [ 4.5750561, 7.5030653 ] } },
{ "type": "Feature", "properties": { "Unnamed: 0": 324, "Name": "Niger Optical Makurdi", "Address": "No 20 J. S. Tarka Road By Benue Crescent Junction", "State": "Benue", "lga_name_x": "Makurdi", "HMO Plan": "Plan1" }, "geometry": { "type": "Point", "coordinates": [ 8.5177394, 7.7356646 ] } },
{ "type": "Feature", "properties": { "Unnamed: 0": 325, "Name": "Notio Medics And Services Limited", "Address": "I Dot I Plaza, No 2 Meyere Road, Narayi High Cost Road, Southern Kaduna", "State": "Kaduna", "lga_name_x": "Chikun", "HMO Plan": "Plan1" }, "geometry": { "type": "Point", "coordinates": [ 7.4431066, 10.464619 ] } },
{ "type": "Feature", "properties": { "Unnamed: 0": 327, "Name": "Jayview Opticals And Eye Care", "Address": "163 Yahaya Madaki Way,Opposite Mani-House, Layout Katsina", "State": "Katsina", "lga_name_x": "Katsina", "HMO Plan": "Plan1" }, "geometry": { "type": "Point", "coordinates": [ 7.6224387, 12.981824 ] } },
{ "type": "Feature", "properties": { "Unnamed: 0": 328, "Name": "Opeyemi Mega Eye Centre", "Address": "No 4B Amilegbe,Saboline,Kwara State", "State": "Kwara", "lga_name_x": "Ilorin South", "HMO Plan": "Plan1" }, "geometry": { "type": "Point", "coordinates": [ 4.564154, 8.495876 ] } },
{ "type": "Feature", "properties": { "Unnamed: 0": 329, "Name": "Allure Eyecare", "Address": "Garin Alimi Hospital, 283 Umaru Saro Road, Ilorin", "State": "Kwara", "lga_name_x": "Ilorin South", "HMO Plan": "Plan1" }, "geometry": { "type": "Point", "coordinates": [ 4.5444192, 8.537279 ] } },
{ "type": "Feature", "properties": { "Unnamed: 0": 330, "Name": "Capstone Lunar Hospital", "Address": "11,Bebind Iblar Filling Station Off Taiwo Road Ilorin", "State": "Kwara", "lga_name_x": "Ilorin West", "HMO Plan": "Plan1" }, "geometry": { "type": "Point", "coordinates": [ 4.5381463, 8.4788013 ] } },
{ "type": "Feature", "properties": { "Unnamed: 0": 331, "Name": "Smaray Eye Center", "Address": "No 2 Uac Road, Off Josroad Behind Mobile Filling Station Lafia Nasarawa", "State": "Nasarawa", "lga_name_x": "Lafia", "HMO Plan": "Plan1" }, "geometry": { "type": "Point", "coordinates": [ 8.507992, 8.5168564 ] } },
{ "type": "Feature", "properties": { "Unnamed: 0": 333, "Name": "Gaskiya Eye Optical Services", "Address": "Sultan Abubakar Road", "State": "Sokoto", "lga_name_x": "Birnin Kebbi", "HMO Plan": "Plan1" }, "geometry": { "type": "Point", "coordinates": [ 4.2101456, 12.4644923 ] } },
{ "type": "Feature", "properties": { "Unnamed: 0": 334, "Name": "Nenbal Eye Hospital", "Address": "Opposite The Fourth Gate Dadin Kowa Before Zarmaganda Rayfield Junction, Jos, ...", "State": "Plateau", "lga_name_x": "Jos North", "HMO Plan": "Plan1" }, "geometry": { "type": "Point", "coordinates": [ 8.8583309, 9.8965273 ] } },
{ "type": "Feature", "properties": { "Unnamed: 0": 335, "Name": "Achilles Specialist Hospital", "Address": "Gyel Lowcost, Bukuru", "State": "Plateau", "lga_name_x": "Jos South", "HMO Plan": "Plan1" }, "geometry": { "type": "Point", "coordinates": [ 8.8448153, 9.7925333 ] } },
{ "type": "Feature", "properties": { "Unnamed: 0": 336, "Name": "Palmary Eye Consultancy Clinic", "Address": "Temple Road Kufang Off Miango Road Jos South", "State": "Jos", "lga_name_x": "Jos South", "HMO Plan": "Plan1" }, "geometry": { "type": "Point", "coordinates": [ 8.8660432, 9.8629281 ] } },
{ "type": "Feature", "properties": { "Unnamed: 0": 337, "Name": "Rexan Eye And Low Vision Clinic", "Address": "Plot 13 Bishop Dalton Plaza Galadima Aminu Way Jimeta Yola", "State": "Adamawa", "lga_name_x": "Yola North", "HMO Plan": "Plan1" }, "geometry": { "type": "Point", "coordinates": [ 12.4416872, 9.2687516 ] } },
{ "type": "Feature", "properties": { "Unnamed: 0": 338, "Name": "Beacon Eye And Medical Consults Ltd", "Address": "10 Bishop Street, Malel Plaza Adjacent Nurses House, Jimeta-Yola Adamawa.", "State": "Yola", "lga_name_x": "Yola South", "HMO Plan": "Plan1" }, "geometry": { "type": "Point", "coordinates": [ 12.4953899, 9.2034963 ] } }
]
}
