{
"type": "FeatureCollection",
"name": "Paediatrics_Clinics",
"crs": { "type": "name", "properties": { "name": "urn:ogc:def:crs:OGC:1.3:CRS84" } },
"features": [
{ "type": "Feature", "properties": { "Name": "Lifeline Children S Hospital Lekki", "Address": "1A Augustine Anozie Street Lekki Phase 1", "State": "Lagos", "LGA": "Eti Osa", "HMO Plan": "Plan1" }, "geometry": { "type": "Point", "coordinates": [ 3.455475, 6.4430776 ] } },
{ "type": "Feature", "properties": { "Name": "Coptic Hospital", "Address": "Plot1,Block 11, Abila Road, Oniru, Vi", "State": "Lagos", "LGA": "Eti Osa", "HMO Plan": "Plan1" }, "geometry": { "type": "Point", "coordinates": [ 3.4447378, 6.4348861 ] } },
{ "type": "Feature", "properties": { "Name": "Paediatric Partners Limited", "Address": "314A Akin Ogunlewe Road Off Ligali Ayorinde,Victoria Island", "State": "Lagos", "LGA": "Eti Osa", "HMO Plan": "Plan1" }, "geometry": { "type": "Point", "coordinates": [ 3.4385753, 6.4261775 ] } },
{ "type": "Feature", "properties": { "Name": "The Childrens Practice Ltd", "Address": "25 Raymond Njoku Street Off Awolowo Road Ikoyi, Lagos", "State": "Lagos", "LGA": "Eti Osa", "HMO Plan": "Plan1" }, "geometry": { "type": "Point", "coordinates": [ 3.4224428, 6.4420577 ] } },
{ "type": "Feature", "properties": { "Name": "Atlantis Pediatric Hospital", "Address": "Plot 64, Fola Osibo Road By Victoria Arobieke Junction Lekki Phase 1", "State": "Lagos", "LGA": "Eti Osa", "HMO Plan": "Plan3" }, "geometry": { "type": "Point", "coordinates": [ 3.4744022, 6.4423165 ] } },
{ "type": "Feature", "properties": { "Name": "Xserve Children Hospital Lekki", "Address": "Chevron Alternative Route, House 3C Beside Water Brook School, Lekki", "State": "Lagos", "LGA": "Eti Osa", "HMO Plan": "Plan1" }, "geometry": { "type": "Point", "coordinates": [ 3.5407444, 6.4489743 ] } },
{ "type": "Feature", "properties": { "Name": "The Sheperd Medical Centre Paediatrics", "Address": "No 2 Salvation Road Opebi", "State": "Lagos", "LGA": "Ikeja", "HMO Plan": "Plan3" }, "geometry": { "type": "Point", "coordinates": [ 3.3617611, 6.5893141 ] } },
{ "type": "Feature", "properties": { "Name": "Mother And Child Hospital", "Address": "39A, Adeniyi Jones Avenue, Ikeja, Lagos.", "State": "Lagos", "LGA": "Ikeja", "HMO Plan": "Plan3" }, "geometry": { "type": "Point", "coordinates": [ 3.3431617, 6.6091221 ] } },
{ "type": "Feature", "properties": { "Name": "Inton Paediatric Hospital", "Address": "6 Adelekan Salako Street Off Ijaye Road By Caterpillar Bus Stop Beside Diamond Bank, Ogba", "State": "Lagos", "LGA": "Ikeja", "HMO Plan": "Plan1" }, "geometry": { "type": "Point", "coordinates": [ 3.339973, 6.631351 ] } },
{ "type": "Feature", "properties": { "Name": "Lifeline Children S Hospital Surulere", "Address": "133, Ogunlana Drive Surulere", "State": "Lagos", "LGA": "Surulere", "HMO Plan": "Plan1" }, "geometry": { "type": "Point", "coordinates": [ 3.351657, 6.5035535 ] } },
{ "type": "Feature", "properties": { "Name": "Xserve Clinics", "Address": "Alhaji Masha Road, By The Foot Bridge, At The End Of Alhaji Masha Bridge, Surulere - Lagos.", "State": "Lagos", "LGA": "Surulere", "HMO Plan": "Plan1" }, "geometry": { "type": "Point", "coordinates": [ 3.3550934, 6.5000261 ] } },
{ "type": "Feature", "properties": { "Name": "Outreach Women And Children Hospital, Festac", "Address": "4Th Avenue Festac Town Lagos", "State": "Lagos", "LGA": "Amuwo Odofin", "HMO Plan": "Plan2" }, "geometry": { "type": "Point", "coordinates": [ 3.2799113, 6.4759495 ] } },
{ "type": "Feature", "properties": { "Name": "Outreach Women And Children Hospital Satellite", "Address": "23 Community Road,Satellite Town", "State": "Lagos", "LGA": "Amuwo Odofin", "HMO Plan": "Plan1" }, "geometry": { "type": "Point", "coordinates": [ 3.2562731, 6.4533075 ] } },
{ "type": "Feature", "properties": { "Name": "Outreach Women And Children Hospital, Okota", "Address": "125 Okota Road Opp Slot, Cele Bus Stop, Okota, Isolo, Lagos", "State": "Lagos", "LGA": "Oshodi/Isolo", "HMO Plan": "Plan3" }, "geometry": { "type": "Point", "coordinates": [ 3.3219356, 6.5095843 ] } },
{ "type": "Feature", "properties": { "Name": "Maycentral Clinic And Immunization Centre", "Address": "No 22 St Finbars Street,Akoka,Yaba; 2Nd Avenue, 200Road, House 7 (Beside Zenith Bank, Festac; 132, Awolowo Road, Ikoyi, (Behind Hess Pharmacy, Opposite Spar)", "State": "Lagos", "LGA": "Lagos Mainland", "HMO Plan": "Plan3" }, "geometry": { "type": "Point", "coordinates": [ 3.3710936, 6.5095442 ] } },
{ "type": "Feature", "properties": { "Name": "Bloom Boom Paediatric Centre", "Address": "11A, Chief Samuel Ajayi Street, Magodo Gra 2, Lagos", "State": "Lagos", "LGA": "Kosofe", "HMO Plan": "Plan1" }, "geometry": { "type": "Point", "coordinates": [ 3.3838023, 6.620433 ] } },
{ "type": "Feature", "properties": { "Name": "Outreach Family Hospital", "Address": "157 Iju Road, Fagba B/Stop, Beside Ecobank, Iju Ishaga", "State": "Lagos", "LGA": "Ifako/Ijaye", "HMO Plan": "Plan2" }, "geometry": { "type": "Point", "coordinates": [ 3.3246985, 6.6673892 ] } },
{ "type": "Feature", "properties": { "Name": "Childcare And Wellness Clinics", "Address": "7 Fez Street, Off Kumasi Crescent Near Ferma, Wuse Ii", "State": "Abuja", "LGA": "Municipal Area Council", "HMO Plan": "Plan1" }, "geometry": { "type": "Point", "coordinates": [ 7.4788192, 9.0828889 ] } },
{ "type": "Feature", "properties": { "Name": "Crystal Paediatrics Clinics", "Address": "4 Ikot Ekpene Close Off Emeka Anyaoku Street Garki Area 11 Abuja", "State": "Abuja", "LGA": "Municipal Area Council", "HMO Plan": "Plan1" }, "geometry": { "type": "Point", "coordinates": [ 7.4945847, 9.0404935 ] } },
{ "type": "Feature", "properties": { "Name": "St Raphael Childrens Hospital", "Address": "No 1, 69 Road Off 6Th Avenue, Adkan Estate, Gwarinpa", "State": "Abuja", "LGA": "Municipal Area Council", "HMO Plan": "Plan1" }, "geometry": { "type": "Point", "coordinates": [ 7.3817928, 9.1116109 ] } },
{ "type": "Feature", "properties": { "Name": "Nile Valley Mother And Child Hosp Ltd", "Address": "Plot 602 David Jemibewon Crescent, Off Oladipo Diya Street, Gudu District", "State": "Abuja", "LGA": "Municipal Area Council", "HMO Plan": "Plan1" }, "geometry": { "type": "Point", "coordinates": [ 7.484005, 8.9971395 ] } },
{ "type": "Feature", "properties": { "Name": "Hospimed Clinics And Childrens Hospital", "Address": "Plot 1294 Bamangar Tukur Street, Off Adesoji Aderemi Street, Gudu", "State": "Abuja", "LGA": "Municipal Area Council", "HMO Plan": "Plan4" }, "geometry": { "type": "Point", "coordinates": [ 7.4859721, 9.0026386 ] } },
{ "type": "Feature", "properties": { "Name": "Stedmed Medical Center And Children Hospital", "Address": "No. Nc3 Karu Neighbourhood Way Karu Site.", "State": "Abuja", "LGA": "Municipal Area Council", "HMO Plan": "Plan1" }, "geometry": { "type": "Point", "coordinates": [ 7.5724622, 8.9927796 ] } },
{ "type": "Feature", "properties": { "Name": "Tehila Childrens Hospital", "Address": "14 Trans-Woji Road, Woji, Port-Harcourt, Rivers State, Nigeria", "State": "Rivers", "LGA": "Obio/Akpor", "HMO Plan": "Plan1" }, "geometry": { "type": "Point", "coordinates": [ 7.0555367, 4.8234564 ] } },
{ "type": "Feature", "properties": { "Name": "Omega Children Hospital", "Address": "5 Adc Close, Off Ada George Road, Port Harcourt", "State": "Rivers", "LGA": "Obio/Akpor", "HMO Plan": "Plan3" }, "geometry": { "type": "Point", "coordinates": [ 6.9764937, 4.8295796 ] } },
{ "type": "Feature", "properties": { "Name": "Erlings Childrens Hospital", "Address": "35 Nta/Apara Link Road Rumuigbo Port Harcourt", "State": "Rivers", "LGA": "Obio/Akpor", "HMO Plan": "Plan1" }, "geometry": { "type": "Point", "coordinates": [ 6.9736417, 4.8651395 ] } },
{ "type": "Feature", "properties": { "Name": "Adanta Children Hospital", "Address": "No 44 Evo Road G.R.A Phase 2 Port Harcourt", "State": "Rivers", "LGA": "Obio/Akpor", "HMO Plan": "Plan1" }, "geometry": { "type": "Point", "coordinates": [ 6.9986888, 4.8204884 ] } },
{ "type": "Feature", "properties": { "Name": "Belanka Children Hospital", "Address": "4 Oasis Garden Road Opposite Rcg Resurrection Power Parish,Off Gynescope Street,Rukpakwulusi New Layout,Port Harcourt.", "State": "Rivers State", "LGA": "Obio/Akpor", "HMO Plan": "Plan2" }, "geometry": { "type": "Point", "coordinates": [ 7.0202489, 4.8559621 ] } },
{ "type": "Feature", "properties": { "Name": "Paediatric Care Hospital", "Address": "3 Idiabon Close Off Idiagbon Road Opposite Rccg Kings Palace Gra Phase 3", "State": "Rivers", "LGA": "Port-Harcourt", "HMO Plan": "Plan1" }, "geometry": { "type": "Point", "coordinates": [ 6.9966637, 4.8124839 ] } },
{ "type": "Feature", "properties": { "Name": "Mango Specialist Children Hospital", "Address": "96 Awka Road ,By Lotto Offfice Onitsha", "State": "Anambra", "LGA": "Onitsha North", "HMO Plan": "Plan1" }, "geometry": { "type": "Point", "coordinates": [ 6.7996091, 6.1526115 ] } },
{ "type": "Feature", "properties": { "Name": "Christ The King Specialist And Children'S Hospital Onitsha", "Address": "30 Zik'S Avenue Pob 4567 Fegge Onitsha", "State": "Anambra", "LGA": "Onitsha South", "HMO Plan": "Plan1" }, "geometry": { "type": "Point", "coordinates": [ 6.7760585, 6.137783 ] } },
{ "type": "Feature", "properties": { "Name": "Obijackson Children S Hospital", "Address": "No 2 Madonna University Road Okija, Anambra State", "State": "Anambra", "LGA": "Ihiala", "HMO Plan": "Plan1" }, "geometry": { "type": "Point", "coordinates": [ 6.8354349, 5.8993699 ] } },
{ "type": "Feature", "properties": { "Name": "Prime Specialist Children'S Hospital", "Address": "3 Prime Hospital Road, New Friends Estate, Amawbia Behinfd Kenneth Dike Secondary School", "State": "Anambra", "LGA": "Awka South", "HMO Plan": "Plan1" }, "geometry": { "type": "Point", "coordinates": [ 7.0478064, 6.1999888 ] } },
{ "type": "Feature", "properties": { "Name": "Nedeke Children Hospital", "Address": "34 Udo Ekpo Mkpo Street Off Nwaniba Road Uyo", "State": "Uyo", "LGA": "Uyo", "HMO Plan": "Plan3" }, "geometry": { "type": "Point", "coordinates": [ 7.9555958, 5.0254454 ] } },
{ "type": "Feature", "properties": { "Name": "Calabar Women And Children Hospital", "Address": "164/165 Murtala Mohammed Highway Calabar", "State": "Cross River", "LGA": "Odukpani", "HMO Plan": "Plan1" }, "geometry": { "type": "Point", "coordinates": [ 8.3523118, 5.0635368 ] } },
{ "type": "Feature", "properties": { "Name": "Maternal And Child Specialists Ado Ekiti", "Address": "Nova Road, Ado Ekiti", "State": "Ekiti", "LGA": "Ado-Ekiti", "HMO Plan": "Plan1" }, "geometry": { "type": "Point", "coordinates": [ 5.2149083, 7.6563934 ] } },
{ "type": "Feature", "properties": { "Name": "Pst Triple Care Medical Serpst Vices Nig. Ltd", "Address": "5 Ituku Street, New Haven.", "State": "Enugu", "LGA": "Enugu North", "HMO Plan": "Plan1" }, "geometry": { "type": "Point", "coordinates": [ 7.5280671, 6.4604235 ] } },
{ "type": "Feature", "properties": { "Name": "Mount Horeb Specialist Hospital", "Address": "Md7/8U F Ahmed Road, Behind Powa Shopping Complex, Constitution Road, Kaduna", "State": "Kaduna", "LGA": "Kaduna North", "HMO Plan": "Plan1" }, "geometry": { "type": "Point", "coordinates": [ 7.4423889, 10.504971 ] } },
{ "type": "Feature", "properties": { "Name": "Otunba Tunwase National Pediatric Centre", "Address": "Ososa Junction, Sagamu-Benin Expressway, Ijebu-Ode.", "State": "Ogun", "LGA": "Ijebu Ode", "HMO Plan": "Plan1" }, "geometry": { "type": "Point", "coordinates": [ 3.9228734, 6.7940958 ] } }
]
}
