{
"type": "FeatureCollection",
"name": "Pharmacies",
"crs": { "type": "name", "properties": { "name": "urn:ogc:def:crs:OGC:1.3:CRS84" } },
"features": [
{ "type": "Feature", "properties": { "Name": "Pharmarun", "Address": "12, Josemaria Escriva Street, Ikate, Lekki, Lagos", "State": "Lagos", "LGA": "Eti Osa", "Email Address": "info@pharmarun.africa", "Phone Number": "9134446582" }, "geometry": { "type": "Point", "coordinates": [ 3.481246, 6.4284638 ] } },
{ "type": "Feature", "properties": { "Name": "Healthplus Addo", "Address": "Along Ado Road, Ajah", "State": "Lagos", "LGA": "Eti Osa", "Email Address": "hopeplaza@healthplusnigeria.com", "Phone Number": "8090440791" }, "geometry": { "type": "Point", "coordinates": [ 3.5703559, 6.4789251 ] } },
{ "type": "Feature", "properties": { "Name": "Healthplus Adetokunbo Ademola", "Address": "26 Adetokunbo Ademola Street, Vi.", "State": "Lagos", "LGA": "Eti Osa", "Email Address": "adetokunboademola@healthplusnigeria.com", "Phone Number": "8090413136" }, "geometry": { "type": "Point", "coordinates": [ 3.430403, 6.4355654 ] } },
{ "type": "Feature", "properties": { "Name": "Healthplus Admiralty", "Address": "Two Six Mall, 27,Admiralty Way,Lekki Phase 1,Lagos", "State": "Lagos", "LGA": "Eti Osa", "Email Address": "admiralty@healthplusnigeria.com", "Phone Number": "9087434204" }, "geometry": { "type": "Point", "coordinates": [ 3.4682737, 6.4475358 ] } },
{ "type": "Feature", "properties": { "Name": "Healthplus Ajose", "Address": "284B Ajose Adeogun, Victoria Island", "State": "Lagos", "LGA": "Eti Osa", "Email Address": "ajoseadeogun@healthplusnigeria.com", "Phone Number": "8093959539" }, "geometry": { "type": "Point", "coordinates": [ 3.4359272, 6.4313984 ] } },
{ "type": "Feature", "properties": { "Name": "Healthplus Circle Mall", "Address": "Shop 23, Circle Mall, Jakande Roundabout. Lekki Pennisula", "State": "Lagos", "LGA": "Eti Osa", "Email Address": "circlemall@healthplusnigeria.com", "Phone Number": "9091769423" }, "geometry": { "type": "Point", "coordinates": [ 3.5089815, 6.4335294 ] } },
{ "type": "Feature", "properties": { "Name": "Healthplus Freedom Way", "Address": "Ploot 34 Blk 110. Freedom Way, Lekki Scheme 1", "State": "Lagos", "LGA": "Eti Osa", "Email Address": "freedomway@healthplusnigeria.com", "Phone Number": "9087766939" }, "geometry": { "type": "Point", "coordinates": [ 3.48196, 6.4538177 ] } },
{ "type": "Feature", "properties": { "Name": "Healthplus Glover", "Address": "19, Glover Road. Ikoyi", "State": "Lagos", "LGA": "Eti Osa", "Email Address": "glover@healthplusnigeria.com", "Phone Number": "9087766949" }, "geometry": { "type": "Point", "coordinates": [ 3.4290239, 6.4552909 ] } },
{ "type": "Feature", "properties": { "Name": "Healthplus Ikota", "Address": "Shop N3-N4, Road 5, Ikota Complex, Lekki", "State": "Lagos", "LGA": "Eti Osa", "Email Address": "ikota@healthplusnigeria.com", "Phone Number": "8095898320" }, "geometry": { "type": "Point", "coordinates": [ 3.5851718, 6.4698419 ] } },
{ "type": "Feature", "properties": { "Name": "Healthplus Ikoyi", "Address": "68 Alexander Road, Ikoyi", "State": "Lagos", "LGA": "Eti Osa", "Email Address": "Ikoyi@healthplusnigeria.com", "Phone Number": "8095274960" }, "geometry": { "type": "Point", "coordinates": [ 3.4501542, 6.4458329 ] } },
{ "type": "Feature", "properties": { "Name": "Healthplus Lekki2", "Address": "2, Alo Oladimeji Street ,Ikate Lekki Phase 1", "State": "Lagos", "LGA": "Eti Osa", "Email Address": "Lekki2@healthplusnigeria.com", "Phone Number": "9091769406" }, "geometry": { "type": "Point", "coordinates": [ 3.4757248, 6.435057 ] } },
{ "type": "Feature", "properties": { "Name": "Healthplus Oniru", "Address": "Block 121, T.F Kuboye Street, Oniru.", "State": "Lagos", "LGA": "Eti Osa", "Email Address": "oniru@healthplusnigeria.com", "Phone Number": "8093959536" }, "geometry": { "type": "Point", "coordinates": [ 3.4644376, 6.4291057 ] } },
{ "type": "Feature", "properties": { "Name": "Healthplus Palms", "Address": "Shop 54,The Palms Shopping Centre, Lekki", "State": "Lagos", "LGA": "Eti Osa", "Email Address": "palms@healthplusnigeria.com", "Phone Number": "8095898291" }, "geometry": { "type": "Point", "coordinates": [ 3.5851718, 6.4698419 ] } },
{ "type": "Feature", "properties": { "Name": "Healthplus Spar", "Address": "Spar Supermarket, Lekki", "State": "Lagos", "LGA": "Eti Osa", "Email Address": "spar@healthplusnigeria.com", "Phone Number": "8095898228" }, "geometry": { "type": "Point", "coordinates": [ 3.5851718, 6.4698419 ] } },
{ "type": "Feature", "properties": { "Name": "Mariam Grey Pharmacy", "Address": "Q-Mall Shopping Complex Beach Gate Road Jakande Lekki", "State": "Lagos", "LGA": "Eti Osa", "Email Address": "jennifer@mariamgrey.com", "Phone Number": "8091011160" }, "geometry": { "type": "Point", "coordinates": [ 3.5089439, 6.4321657 ] } },
{ "type": "Feature", "properties": { "Name": "Tps Pharmacy", "Address": "6B, Tulip Heaven Estate, Chevron Alternative Drive Road,Lekki", "State": "Lagos", "LGA": "Eti Osa", "Email Address": "axamansard@tpspharmacy.net", "Phone Number": "8033598792" }, "geometry": { "type": "Point", "coordinates": [ 3.5430619, 6.4523353 ] } },
{ "type": "Feature", "properties": { "Name": "Exc Phamacy", "Address": "6B, Francis Ojei Chevron Alternative Lekki Phase 3", "State": "Lagos", "LGA": "Eti Osa", "Email Address": "Imelda.ojei@excareng.com", "Phone Number": "8152355358" }, "geometry": { "type": "Point", "coordinates": [ 3.5851718, 6.4698419 ] } },
{ "type": "Feature", "properties": { "Name": "Pillsplus Pharmacy", "Address": "5A Wole Ariyo Off Admiralty Way Lekki Phase 1", "State": "Lagos", "LGA": "Eti Osa", "Email Address": "thepillsplus@gmail.com", "Phone Number": "8062179381" }, "geometry": { "type": "Point", "coordinates": [ 3.458962, 6.4450591 ] } },
{ "type": "Feature", "properties": { "Name": "Medplus-Medplus Agungi", "Address": "Shepard'S Place, Lagos", "State": "Lagos", "LGA": "Eti Osa", "Email Address": "agungishop@medplusng.com", "Phone Number": "8183003665" }, "geometry": { "type": "Point", "coordinates": [ 3.49272, 6.4441655 ] } },
{ "type": "Feature", "properties": { "Name": "Medplus-Blenco Mall", "Address": "54, Pump And Sell Along Ado Road, Ajah", "State": "Lagos", "LGA": "Eti Osa", "Email Address": "blencomail@medplusng.com", "Phone Number": "8187316970" }, "geometry": { "type": "Point", "coordinates": [ 3.5703559, 6.4789251 ] } },
{ "type": "Feature", "properties": { "Name": "Medplus-Eleguishi", "Address": "70, Kusenla Road, Ikate, Eleguishi", "State": "Lagos", "LGA": "Eti Osa", "Email Address": "elegushishop@medplusng.com", "Phone Number": "9055493665" }, "geometry": { "type": "Point", "coordinates": [ 3.490619, 6.445695 ] } },
{ "type": "Feature", "properties": { "Name": "Medplus-Ranbrook Square", "Address": "2, Baale Street, Igbo-Efon Bus Stop, Lekki Lagos", "State": "Lagos", "LGA": "Eti Osa", "Email Address": "ranbrookshop@medplusng.com", "Phone Number": "9152592975" }, "geometry": { "type": "Point", "coordinates": [ 3.5211119, 6.4388819 ] } },
{ "type": "Feature", "properties": { "Name": "Medplus-Blackbell", "Address": "Blackbell Mall, Ikota, Lagos", "State": "Lagos", "LGA": "Eti Osa", "Email Address": "blackbellshop@medplusng.com", "Phone Number": "9053927663" }, "geometry": { "type": "Point", "coordinates": [ 3.5521218, 6.4489867 ] } },
{ "type": "Feature", "properties": { "Name": "Medplus-Capital Mall", "Address": "Shop B4 And B5, Capital Garden Mall, Orchid Hotel Road, Eti-Osa, Lagos", "State": "Lagos", "LGA": "Eti Osa", "Email Address": "orchidshop@medplusng.com", "Phone Number": "9152592982" }, "geometry": { "type": "Point", "coordinates": [ 3.5433919, 6.4432707 ] } },
{ "type": "Feature", "properties": { "Name": "Medplus-Awolowo", "Address": "Sweet Sensation Building, Ikoyi, Lagos", "State": "Lagos", "LGA": "Eti Osa", "Email Address": "awolowoshop@medplusng.com", "Phone Number": "7013489468" }, "geometry": { "type": "Point", "coordinates": [ 3.433333, 6.45 ] } },
{ "type": "Feature", "properties": { "Name": "Medplus-Awolowo Annex (Ikoyi)", "Address": "168 Awolowo Road Ikoyi", "State": "Lagos", "LGA": "Eti Osa", "Email Address": "ikoyishop@medplusng.com", "Phone Number": "9152592953" }, "geometry": { "type": "Point", "coordinates": [ 3.422169, 6.4443412 ] } },
{ "type": "Feature", "properties": { "Name": "Medplus-Glover Mall, Lagos", "Address": "37, Glover Road, Ikoyi", "State": "Lagos", "LGA": "Eti Osa", "Email Address": "glovershop@medplusng.com", "Phone Number": "9150691592" }, "geometry": { "type": "Point", "coordinates": [ 3.4363176, 6.4524493 ] } },
{ "type": "Feature", "properties": { "Name": "Medplus-Keffi", "Address": "31, Keffi Street, Ikoyi, Lagos", "State": "Lagos", "LGA": "Eti Osa", "Email Address": "keffishop@medplusng.com", "Phone Number": "7013489460" }, "geometry": { "type": "Point", "coordinates": [ 3.4154929, 6.4427635 ] } },
{ "type": "Feature", "properties": { "Name": "Medplus-Ikoyi Plaza", "Address": "31, Awolowo Road, Ikoyi, Lagos", "State": "Lagos", "LGA": "Eti Osa", "Email Address": "ikoyiplazashop@medplusng.com", "Phone Number": "9152592992" }, "geometry": { "type": "Point", "coordinates": [ 3.4148932, 6.4422524 ] } },
{ "type": "Feature", "properties": { "Name": "Medplus-Kingsway", "Address": "8A Kingsway Road, Ikoyi. Lagos", "State": "Lagos", "LGA": "Eti Osa", "Email Address": "kingswayshop@medplusng.com", "Phone Number": "9154398837" }, "geometry": { "type": "Point", "coordinates": [ 3.4294471, 6.4489015 ] } },
{ "type": "Feature", "properties": { "Name": "Medplus-Hakeem Dicson", "Address": "Block 113, Plot 1C, Cornerpiece Property, Akeem Dickson, Lekki", "State": "Lagos", "LGA": "Eti Osa", "Email Address": "hakeemshop@medplusng.com", "Phone Number": "9152592979" }, "geometry": { "type": "Point", "coordinates": [ 3.4746046, 6.4372807 ] } },
{ "type": "Feature", "properties": { "Name": "Medplus-Beyond Medplus - Atlantic", "Address": "No 6, Chevron Drive, Lekki, Lagos", "State": "Lagos", "LGA": "Eti Osa", "Email Address": "beyondatlantic@medplusng.com", "Phone Number": "8159739667" }, "geometry": { "type": "Point", "coordinates": [ 3.5316245, 6.448201 ] } },
{ "type": "Feature", "properties": { "Name": "Medplus-Lekki Rite", "Address": "36, Oriwu Street, Lekki Phase 1", "State": "Lagos", "LGA": "Eti Osa", "Email Address": "rightshop@medplusng.com", "Phone Number": "8154568005" }, "geometry": { "type": "Point", "coordinates": [ 3.4750342, 6.4259638 ] } },
{ "type": "Feature", "properties": { "Name": "Medplus-Atlantic Mall (Chevron)", "Address": "6A, Off Uba Chevron Drive, Lekki, Lagos", "State": "Lagos", "LGA": "Eti Osa", "Email Address": "atlanticshop@medplusng.com", "Phone Number": "9082043862" }, "geometry": { "type": "Point", "coordinates": [ 3.5303999, 6.4480791 ] } },
{ "type": "Feature", "properties": { "Name": "Medplus-Berah Mall", "Address": "20A, Uba Berah Estate Chevron Drive Lekki", "State": "Lagos", "LGA": "Eti Osa", "Email Address": "berrahshop@medplusng.com", "Phone Number": "9053790050" }, "geometry": { "type": "Point", "coordinates": [ 3.5851718, 6.4698419 ] } },
{ "type": "Feature", "properties": { "Name": "Medplus-Admiralty Annex", "Address": "10A Admiralty Way Lekki Phase 1 Opposite Ever Care Hospital", "State": "Lagos", "LGA": "Eti Osa", "Email Address": "admiraltyshop@medplusng.com", "Phone Number": "9152592952" }, "geometry": { "type": "Point", "coordinates": [ 3.480237, 6.448041 ] } },
{ "type": "Feature", "properties": { "Name": "Medplus-Beyond", "Address": "69, Admiralty Way, Beside Zenith Bank, Lekki Phase 1", "State": "Lagos", "LGA": "Eti Osa", "Email Address": "beyondshop@medplusng.com", "Phone Number": "9152592985" }, "geometry": { "type": "Point", "coordinates": [ 3.471963, 6.4474098 ] } },
{ "type": "Feature", "properties": { "Name": "Medplus-Bukka Hut", "Address": "Plot 2, Admiralty Way, Lekki Phase 1, Lagos", "State": "Lagos", "LGA": "Eti Osa", "Email Address": "bukkahutshop@medplusng.com", "Phone Number": "8171030932" }, "geometry": { "type": "Point", "coordinates": [ 3.4562442, 6.4449631 ] } },
{ "type": "Feature", "properties": { "Name": "Medplus-Entourage Mall", "Address": "32, Adebayo Dorothy Street, Lekki Phase 1, Lagos", "State": "Lagos", "LGA": "Eti Osa", "Email Address": "entourageshop@medplusng.com", "Phone Number": "8155974865" }, "geometry": { "type": "Point", "coordinates": [ 3.4723495, 6.4478093 ] } },
{ "type": "Feature", "properties": { "Name": "Medplus-Fola Osibo", "Address": "12, Fola Osibo Road, Lekki Phase 1", "State": "Lagos", "LGA": "Eti Osa", "Email Address": "folaosibo@medplusng.com", "Phone Number": "8187235376" }, "geometry": { "type": "Point", "coordinates": [ 3.4663436, 6.4423187 ] } },
{ "type": "Feature", "properties": { "Name": "Medplus-Fresh Forte", "Address": "Freshforte, Plot C5, Block 12E Lekki Admiralty, Lagos", "State": "Lagos", "LGA": "Eti Osa", "Email Address": "freshfortesop@medplusng.com", "Phone Number": "8077791010" }, "geometry": { "type": "Point", "coordinates": [ 3.4645276, 6.4474885 ] } },
{ "type": "Feature", "properties": { "Name": "Medplus-Lekki", "Address": "7, Admiralty Way, Lekki Phase 1, Lagos", "State": "Lagos", "LGA": "Eti Osa", "Email Address": "lekkishop@medplusng.com", "Phone Number": "8098509526" }, "geometry": { "type": "Point", "coordinates": [ 3.4562247, 6.4396178 ] } },
{ "type": "Feature", "properties": { "Name": "Medplus-Lekki County Homes", "Address": "Km 22, Lekkiepe Expressway, Lekki", "State": "Lagos", "LGA": "Eti Osa", "Email Address": "lekkicountyshop@medplusng.com", "Phone Number": "9053927666" }, "geometry": { "type": "Point", "coordinates": [ 3.5422722, 6.4384337 ] } },
{ "type": "Feature", "properties": { "Name": "Medplus-Lidone Branch", "Address": "34A, Fola Osibo Street, Lekki Phase 1, Lagos", "State": "Lagos", "LGA": "Eti Osa", "Email Address": "lidoneplace@medplusng.com", "Phone Number": "8184754730" }, "geometry": { "type": "Point", "coordinates": [ 3.4690891, 6.4424274 ] } },
{ "type": "Feature", "properties": { "Name": "Medplus-Road 14", "Address": "2A Adebayo Dorathy Street, Road 14, Lekki Phase 1, Lagos", "State": "Lagos", "LGA": "Eti Osa", "Email Address": "road14shop@medplusng.com", "Phone Number": "9053887572" }, "geometry": { "type": "Point", "coordinates": [ 3.4734668, 6.4561842 ] } },
{ "type": "Feature", "properties": { "Name": "Medplus-Oriwu", "Address": "5, Oriwu Street, By Petrocam Filling Station, Lekki", "State": "Lagos", "LGA": "Eti Osa", "Email Address": "oriwushop@medplusng.com", "Phone Number": "8184121607" }, "geometry": { "type": "Point", "coordinates": [ 3.4743075, 6.4294661 ] } },
{ "type": "Feature", "properties": { "Name": "Medplus-Qmb,", "Address": "Qmb Mart, Block 138, Plot 8, Lekki Scheme, Lagos", "State": "Lagos", "LGA": "Eti Osa", "Email Address": "qmbshop@medplusng.com", "Phone Number": "9152592983" }, "geometry": { "type": "Point", "coordinates": [ 3.4791337, 6.4312003 ] } },
{ "type": "Feature", "properties": { "Name": "Medplus-Bannex Mall", "Address": "Bannex Mall, Plot 1 And 10, Akiogun Road, Oniru, Lekki Epe Expressway, Lekki Lagos.", "State": "Lagos", "LGA": "Eti Osa", "Email Address": "banexshop@medplusng.com", "Phone Number": "9152592963" }, "geometry": { "type": "Point", "coordinates": [ 3.4569086, 6.4276377 ] } },
{ "type": "Feature", "properties": { "Name": "Medplus-Oniru", "Address": "Block Xxi, Plot 19, Chief Yesufu Abiodun Way/ Lawani Oduloye Road, Oniru Estate, Lekki\n100001 Lekki\nNigeria", "State": "Lagos", "LGA": "Eti Osa", "Email Address": "onirushop@medplusng.com", "Phone Number": "9084440599" }, "geometry": { "type": "Point", "coordinates": [ 3.4566405, 6.4258815 ] } },
{ "type": "Feature", "properties": { "Name": "Medplus-Landmark Mall", "Address": "Water Cooperation Drive, Landmark", "State": "Lagos", "LGA": "Eti Osa", "Email Address": "landmarkshop@medplusng.com", "Phone Number": "8155975356" }, "geometry": { "type": "Point", "coordinates": [ 3.4459952, 6.4244331 ] } },
{ "type": "Feature", "properties": { "Name": "Medplus-Sangotedo Mall (Ajah)", "Address": "Novare Mall, Lekki", "State": "Lagos", "LGA": "Eti Osa", "Email Address": "sangotedoshop@medplusng.com", "Phone Number": "8188687911" }, "geometry": { "type": "Point", "coordinates": [ 3.6388422, 6.4675064 ] } },
{ "type": "Feature", "properties": { "Name": "Medplus-1004 Branch", "Address": "Housing Estate, Victoria Island, Lagos", "State": "Lagos", "LGA": "Eti Osa", "Email Address": "1004shop@medplusng.com", "Phone Number": "8027272010" }, "geometry": { "type": "Point", "coordinates": [ 3.4238032, 6.4290982 ] } },
{ "type": "Feature", "properties": { "Name": "Medplus-Adeola Hopewell (Experience Center)", "Address": "26, Adeola Hopewell Street, Victoria Island, Lagos", "State": "Lagos", "LGA": "Eti Osa", "Email Address": "hopewellshop@medplusng.com", "Phone Number": "9053927665" }, "geometry": { "type": "Point", "coordinates": [ 3.4290124, 6.4322183 ] } },
{ "type": "Feature", "properties": { "Name": "Medplus-Adeola Odeku", "Address": "2, Adeola Odeku Street, Victoria Island, Lagos", "State": "Lagos", "LGA": "Eti Osa", "Email Address": "odekushop@medplusng.com", "Phone Number": "7015827743" }, "geometry": { "type": "Point", "coordinates": [ 3.4093392, 6.4297506 ] } },
{ "type": "Feature", "properties": { "Name": "Medplus-Greenville Mall", "Address": "10, Adeola Odeku Street, Victoria Island", "State": "Lagos", "LGA": "Eti Osa", "Email Address": "greenvilleshop@medplusng.com", "Phone Number": "8112491457" }, "geometry": { "type": "Point", "coordinates": [ 3.4105021, 6.4296469 ] } },
{ "type": "Feature", "properties": { "Name": "Medplus-Ligali Shop", "Address": "Abeni Plaza, 52 Ayorinde Street Vi Lagos", "State": "Lagos", "LGA": "Eti Osa", "Email Address": "ligalishop@medplusng.com", "Phone Number": "9053835710" }, "geometry": { "type": "Point", "coordinates": [ 3.4397239, 6.4343452 ] } },
{ "type": "Feature", "properties": { "Name": "Medplus-Mega Plaza", "Address": "Idowu Martins Street, Victoria Island, Lagos", "State": "Lagos", "LGA": "Eti Osa", "Email Address": "megashop@medplusng.com", "Phone Number": "7013489466" }, "geometry": { "type": "Point", "coordinates": [ 3.4199909, 6.4327949 ] } },
{ "type": "Feature", "properties": { "Name": "Medplus-Saka Store", "Address": "45, Saka Tinubu Street, Victoria Island, Lagos", "State": "Lagos", "LGA": "Eti Osa", "Email Address": "sakashop@medplusng.com", "Phone Number": "7013489458" }, "geometry": { "type": "Point", "coordinates": [ 3.4232975, 6.4273387 ] } },
{ "type": "Feature", "properties": { "Name": "Medplus-Sanusi Mall", "Address": "Fourteen 36, Sanusi Fafunwa, Victoria Island, Lagos", "State": "Lagos", "LGA": "Eti Osa", "Email Address": "sanusishop@medplusng.com", "Phone Number": "7013489465" }, "geometry": { "type": "Point", "coordinates": [ 3.4263889, 6.4313889 ] } },
{ "type": "Feature", "properties": { "Name": "Medplus-Tantalizers", "Address": "Ademola Adetokunbo, Victoria Island, Lagos", "State": "Lagos", "LGA": "Eti Osa", "Email Address": "tantashop@medplusng.com", "Phone Number": "7013489459" }, "geometry": { "type": "Point", "coordinates": [ 3.4301063, 6.4307739 ] } },
{ "type": "Feature", "properties": { "Name": "Medplus-Cubana", "Address": "Cubana World, 17 Adeola Odeku Street, Vi Lagos", "State": "Lagos", "LGA": "Eti Osa", "Email Address": "cubanashop@medplusng.com", "Phone Number": "9084440588" }, "geometry": { "type": "Point", "coordinates": [ 3.4137686, 6.4309437 ] } },
{ "type": "Feature", "properties": { "Name": "Drugstore Pharmacy", "Address": "4/6, Itokin Road, Sabo Ikorodu, Lagos", "State": "Lagos", "LGA": "Ikorodu", "Email Address": "hello@drugstore.ng", "Phone Number": "08060801979, 08062510409" }, "geometry": { "type": "Point", "coordinates": [ 3.512164, 6.628548 ] } },
{ "type": "Feature", "properties": { "Name": "Donom Bonitas(Db) Pharmacy", "Address": "8, Lambo Lasunwo Street First Gate Laspotech, Ikorodu, Lagos", "State": "Lagos", "LGA": "Ikorodu", "Email Address": "donombonitas@gmail.com", "Phone Number": "9011027490" }, "geometry": { "type": "Point", "coordinates": [ 3.5147746, 6.6471366 ] } },
{ "type": "Feature", "properties": { "Name": "Donom Bonitas(Db)Pharmacy", "Address": "63, Ojuemuren Street, Odonguyan, Ikorodu, Lagos", "State": "Lagos", "LGA": "Ikorodu", "Email Address": "donombonitas@gmail.com", "Phone Number": "7081150157" }, "geometry": { "type": "Point", "coordinates": [ 3.5155086, 6.6780696 ] } },
{ "type": "Feature", "properties": { "Name": "Vastovers Pharmacy", "Address": "Free Delivery (Abuja) Suite 36A, Lebrex Plaza, 47 Ajose Adeogun Street, Utako,", "State": "Abuja", "LGA": "Municipal Area Council", "Email Address": "order@vastovers.com", "Phone Number": "8139128408" }, "geometry": { "type": "Point", "coordinates": [ 7.4381273, 9.0680671 ] } },
{ "type": "Feature", "properties": { "Name": "Healthplus Jabi Lake", "Address": "Jabi Lake, Abuja, Nigeria.", "State": "Abuja", "LGA": "Municipal Area Council", "Email Address": "jabilakemall@healthplusnigeria.com", "Phone Number": "9091528381" }, "geometry": { "type": "Point", "coordinates": [ 7.4171069, 9.0735789 ] } },
{ "type": "Feature", "properties": { "Name": "Healthplus Silverbird", "Address": "Shop 1&2, 1121 Memorial Drive, Abuja.", "State": "Abuja", "LGA": "Municipal Area Council", "Email Address": "silverbirdabuja@healthplusnigeria.com", "Phone Number": "8172010879" }, "geometry": { "type": "Point", "coordinates": [ 7.4985259, 9.0562646 ] } },
{ "type": "Feature", "properties": { "Name": "Tuccimed Pharmacy", "Address": "Pick-Up/Delivery(Abuja And North Central) Shop 8&9, Maija Plaza, Sahara Estate, Gwarimpa", "State": "Abuja", "LGA": "Municipal Area Council", "Email Address": "tuccimedpharmacy@gmail.com", "Phone Number": "7069404038" }, "geometry": { "type": "Point", "coordinates": [ 7.4985259, 9.0562646 ] } },
{ "type": "Feature", "properties": { "Name": "Tuccimed Pharmacy", "Address": "4, Inuwa Wada Crescent Off Tos Benson Crescent, Utako", "State": "Abuja", "LGA": "Municipal Area Council", "Email Address": "tuccimedpharmacy@gmail.com", "Phone Number": "7069404038" }, "geometry": { "type": "Point", "coordinates": [ 7.4482421, 9.0724921 ] } },
{ "type": "Feature", "properties": { "Name": "Fieldway Pharmacy", "Address": "21, Wole Soyinka Avenue (2Nd Avenue), Gwarimpa Housing Estate, Abuja", "State": "Abuja", "LGA": "Municipal Area Council", "Email Address": "fieldwaypharmacy@gmail.com , onylawal@gmail.com.", "Phone Number": "08028906966/08169212939" }, "geometry": { "type": "Point", "coordinates": [ 7.4221542, 9.1026631 ] } },
{ "type": "Feature", "properties": { "Name": "Pharmachain", "Address": "Plot 1217, Olusegun Obasanjo Way, Opposite Oando By Gsm Village Zone 1", "State": "Abuja", "LGA": "Municipal Area Council", "Email Address": "hello@pharmachain.ng", "Phone Number": "9168224197" }, "geometry": { "type": "Point", "coordinates": [ 7.4695748, 9.0536207 ] } },
{ "type": "Feature", "properties": { "Name": "Medplus-Aminu Kano", "Address": "78 Aminu Kano, Wuse 2, Abuja", "State": "Abuja", "LGA": "Municipal Area Council", "Email Address": "aminushop@medplusng.com", "Phone Number": "9150691593" }, "geometry": { "type": "Point", "coordinates": [ 7.4643873, 9.0749769 ] } },
{ "type": "Feature", "properties": { "Name": "Medplus-Apo Mall", "Address": "Novare Central Office Park Dalagba Street, Zone 5 Abuja", "State": "Abuja", "LGA": "Municipal Area Council", "Email Address": "aposhop@medplusng.com", "Phone Number": "8116330192" }, "geometry": { "type": "Point", "coordinates": [ 7.457752, 9.0643242 ] } },
{ "type": "Feature", "properties": { "Name": "Medplus-Utako Mall", "Address": "Plot 482, Coza Zone E05 Obafemi Awolowo Expressway, Abuja", "State": "Abuja", "LGA": "Municipal Area Council", "Email Address": "utakoshop@medplusng.com", "Phone Number": "8155975033" }, "geometry": { "type": "Point", "coordinates": [ 7.4672313, 8.9767758 ] } },
{ "type": "Feature", "properties": { "Name": "Medplus-Central Office Park", "Address": "Novare Central Office Park Dalagba Street, Wuse Zone 5 Shoprite By Skye Memoria Pdp Head Quarter Office, Abuja", "State": "Abuja", "LGA": "Municipal Area Council", "Email Address": "copshop@medplusng.com", "Phone Number": "8086534006" }, "geometry": { "type": "Point", "coordinates": [ 7.457752, 9.0643242 ] } },
{ "type": "Feature", "properties": { "Name": "Medplus-Gat", "Address": "Nnamdi Azikiwe International Airpot", "State": "Abuja", "LGA": "Municipal Area Council", "Email Address": "gatshop@medplusng.com", "Phone Number": "9152592972" }, "geometry": { "type": "Point", "coordinates": [ 7.2695056, 9.0062589 ] } },
{ "type": "Feature", "properties": { "Name": "Medplus-Gwarinpa, Abuja", "Address": "Studio 24 3Rd Avenue, Gwarinpa, Abuja", "State": "Abuja", "LGA": "Municipal Area Council", "Email Address": "gwarinpashop@medplusng.com", "Phone Number": "9152592967" }, "geometry": { "type": "Point", "coordinates": [ 7.4048066, 9.1033426 ] } },
{ "type": "Feature", "properties": { "Name": "Medplus-Jabi Lake", "Address": "Jabi Lake, 265A Boka Sokoto Way, Jabi District, Cadastral Zone 304", "State": "Abuja", "LGA": "Municipal Area Council", "Email Address": "jabishop@medplusng.com", "Phone Number": "9052592968" }, "geometry": { "type": "Point", "coordinates": [ 7.4229395, 9.0641062 ] } },
{ "type": "Feature", "properties": { "Name": "Medplus-Mall 55, Abuja", "Address": "Kumasi Crescent, Wuse 2 Abuja", "State": "Abuja", "LGA": "Municipal Area Council", "Email Address": "mall55shop@medplusng.com", "Phone Number": "9152592957" }, "geometry": { "type": "Point", "coordinates": [ 7.4790694, 9.0812335 ] } },
{ "type": "Feature", "properties": { "Name": "Medplus-Lugbe Mall (Abuja)", "Address": "Novare Gateway, Abuja", "State": "Abuja", "LGA": "Municipal Area Council", "Email Address": "lugbeshop@medplusng.com", "Phone Number": "8181869338" }, "geometry": { "type": "Point", "coordinates": [ 7.3941452, 8.9910777 ] } },
{ "type": "Feature", "properties": { "Name": "Wellahealth(Only To Be Used As Last Resort)", "Address": "Locations Outside Lagos, Abuja And Portharcourt", "State": "Abuja", "LGA": "Municipal Area Council", "Email Address": "fulfilments@wellahealth.com", "Phone Number": "08053560124 , 08139005182" }, "geometry": { "type": "Point", "coordinates": [ 7.4985259, 9.0562646 ] } },
{ "type": "Feature", "properties": { "Name": "Vastovers Pharmacy", "Address": "Free Delivery/Pickup (Lagos) Plot 279A, Oworonshoki Expressway, Lagos", "State": "Lagos", "LGA": "Shomolu", "Email Address": "order@vastovers.com", "Phone Number": "9088138739" }, "geometry": { "type": "Point", "coordinates": [ 3.3782249, 6.5493306 ] } },
{ "type": "Feature", "properties": { "Name": "3D Radiance Pharmacy", "Address": "8, Moshalashi Street, Off Ifako Police Station, Ifako Gbagada", "State": "Lagos", "LGA": "Shomolu", "Email Address": "3deeplus@gmail.com", "Phone Number": "7084108410" }, "geometry": { "type": "Point", "coordinates": [ 3.3743838, 6.5337519 ] } },
{ "type": "Feature", "properties": { "Name": "Exc Phamacy", "Address": "250, Ikorodu Road, Beside Awoof Restaurant, Obanikoro", "State": "Lagos", "LGA": "Shomolu", "Email Address": "Imelda.ojei@excareng.com", "Phone Number": "8152355358" }, "geometry": { "type": "Point", "coordinates": [ 3.3673887, 6.5482719 ] } },
{ "type": "Feature", "properties": { "Name": "Medplus-Pedro", "Address": "38, Salami Suaibu Street, Pedro Road, Palmgroove", "State": "Lagos", "LGA": "Shomolu", "Email Address": "pedroshop@medplusng.com", "Phone Number": "8115154717" }, "geometry": { "type": "Point", "coordinates": [ 3.3718356, 6.5447156 ] } },
{ "type": "Feature", "properties": { "Name": "Medplus-Gbagada", "Address": "Plot 310 Gbagada-Oworonshoki Expressway, Beside Chicken Republic", "State": "Lagos", "LGA": "Shomolu", "Email Address": "gbagadashop@medplusng.com", "Phone Number": "9150493176" }, "geometry": { "type": "Point", "coordinates": [ 3.3873909, 6.5483845 ] } },
{ "type": "Feature", "properties": { "Name": "Pillsmax Pharmacy", "Address": "Delivery/Pickup 11, Jemtok Street Off Ago Palace Way, Okota, Isolo, Lagos", "State": "Lagos", "LGA": "Oshodi/Isolo", "Email Address": "pillsmaxpharm@gmail.com", "Phone Number": "09057571865," }, "geometry": { "type": "Point", "coordinates": [ 3.3126305, 6.5071572 ] } },
{ "type": "Feature", "properties": { "Name": "Medplus-Osolo", "Address": "11, Osolo Way Ajao Estate Beside Dominio'S Pizza", "State": "Lagos", "LGA": "Oshodi/Isolo", "Email Address": "osoloshop@medplusng.com", "Phone Number": "9150493180" }, "geometry": { "type": "Point", "coordinates": [ 3.3328142, 6.5402482 ] } },
{ "type": "Feature", "properties": { "Name": "Healthplus Addas Mall", "Address": "8-10, Akeem Balogun Street, Agidingbi, Lagos", "State": "Lagos", "LGA": "Ikeja", "Email Address": "addasmall@healthplusnigeria.com", "Phone Number": "9091769428" }, "geometry": { "type": "Point", "coordinates": [ 3.3529624, 6.6234326 ] } },
{ "type": "Feature", "properties": { "Name": "Healthplus Oba Akran", "Address": "30, Oba Akran Avenue, Ikeja", "State": "Lagos", "LGA": "Ikeja", "Email Address": "Obaakran@healthplusnigeria.com", "Phone Number": "9088980834" }, "geometry": { "type": "Point", "coordinates": [ 3.3368517, 6.6068931 ] } },
{ "type": "Feature", "properties": { "Name": "Healthplus Omole", "Address": "81B, Oba Ogunnusi Road, Omole Phase 1", "State": "Lagos", "LGA": "Ikeja", "Email Address": "omole@healthplusnigeria.com", "Phone Number": "9087323786" }, "geometry": { "type": "Point", "coordinates": [ 3.3599691, 6.6390046 ] } },
{ "type": "Feature", "properties": { "Name": "Flexipharma Pharmacy, Lagos", "Address": "Plot 27, Acme Road, Press House, Opposite I-Fitness Gym, Agidingbi, Lagos", "State": "Lagos", "LGA": "Ikeja", "Email Address": "mdp-lagos@mpharma.com", "Phone Number": "8136258878/09087792946" }, "geometry": { "type": "Point", "coordinates": [ 3.3538002, 6.6273804 ] } },
{ "type": "Feature", "properties": { "Name": "Medplus-Medplus Mma2", "Address": "Departure Hall, Ikeja, Lagos", "State": "Lagos", "LGA": "Ikeja", "Email Address": "mma2shop@medplusng.com", "Phone Number": "7013489461" }, "geometry": { "type": "Point", "coordinates": [ 3.3413858, 6.6025705 ] } },
{ "type": "Feature", "properties": { "Name": "Medplus-Mma2 Annex", "Address": "Ticketing Area, Mma2, Ikeja, Lagos", "State": "Lagos", "LGA": "Ikeja", "Email Address": "mma2annex@medplusng.com", "Phone Number": "8188323769" }, "geometry": { "type": "Point", "coordinates": [ 3.333078, 6.5846362 ] } },
{ "type": "Feature", "properties": { "Name": "Medplus-New International Terminal", "Address": "Mma, Ikeja", "State": "Lagos", "LGA": "Ikeja", "Email Address": "mmiashop@medplusng.com", "Phone Number": "9152592974" }, "geometry": { "type": "Point", "coordinates": [ 3.3514863, 6.601838 ] } },
{ "type": "Feature", "properties": { "Name": "Medplus-Adeniyi Jones", "Address": "107, Adeniyi Jones, Ikeja, Lagos", "State": "Lagos", "LGA": "Ikeja", "Email Address": "adeniyijonesshop@medplusng.com", "Phone Number": "8173136117" }, "geometry": { "type": "Point", "coordinates": [ 3.3456118, 6.6189217 ] } },
{ "type": "Feature", "properties": { "Name": "Medplus-Allen, Ikeja", "Address": "107 Allen Avenue, Ikeja Lagos", "State": "Lagos", "LGA": "Ikeja", "Email Address": "allenshop@medplusng.com", "Phone Number": "9053927662" }, "geometry": { "type": "Point", "coordinates": [ 3.3495772, 6.6057044 ] } },
{ "type": "Feature", "properties": { "Name": "Medplus-Icm", "Address": "Ikeja City Mall Alausa", "State": "Lagos", "LGA": "Ikeja", "Email Address": "ikejashop@medplusng.com", "Phone Number": "7013489462" }, "geometry": { "type": "Point", "coordinates": [ 3.3581327, 6.6143564 ] } },
{ "type": "Feature", "properties": { "Name": "Medplus-Townsquare", "Address": "No 131 Obafemi Awolowo Way, Ikeja, Lagos", "State": "Lagos", "LGA": "Ikeja", "Email Address": "townsquareshop@medplusng.com", "Phone Number": "9053878600" }, "geometry": { "type": "Point", "coordinates": [ 3.3496257, 6.608138 ] } },
{ "type": "Feature", "properties": { "Name": "Medplus-Isaac John", "Address": "29, Isaac John Street, Ikeja, Lagos", "State": "Lagos", "LGA": "Ikeja", "Email Address": "isaacjohnshop@medplusng.com", "Phone Number": "8182913372" }, "geometry": { "type": "Point", "coordinates": [ 3.3582178, 6.5813411 ] } },
{ "type": "Feature", "properties": { "Name": "Medplus-Metro Shop", "Address": "31 Isaac John Street Gra Ikeja Lagos", "State": "Lagos", "LGA": "Ikeja", "Email Address": "metroshop@medplusng.com", "Phone Number": "7013489469" }, "geometry": { "type": "Point", "coordinates": [ 3.3578467, 6.5824462 ] } },
{ "type": "Feature", "properties": { "Name": "Medplus-Oduduwa", "Address": "15 Oduduwa Way, Ikeja Gra, Lagos", "State": "Lagos", "LGA": "Ikeja", "Email Address": "oduduwashop@medplusng.com", "Phone Number": "8113965417" }, "geometry": { "type": "Point", "coordinates": [ 3.358641, 6.5735612 ] } },
{ "type": "Feature", "properties": { "Name": "Medplus-Opebi", "Address": "52, Opebi Road, Ikeja, Lagos", "State": "Lagos", "LGA": "Ikeja", "Email Address": "opebishop@medplusng.com", "Phone Number": "9082042960" }, "geometry": { "type": "Point", "coordinates": [ 3.3608706, 6.5891581 ] } },
{ "type": "Feature", "properties": { "Name": "Medplus-Simbiat", "Address": "22, Simbiat Abiolaway, Ikeja", "State": "Lagos", "LGA": "Ikeja", "Email Address": "simbiatshop@medplusng.com", "Phone Number": "8112493160" }, "geometry": { "type": "Point", "coordinates": [ 3.339004, 6.5919279 ] } },
{ "type": "Feature", "properties": { "Name": "Healthplus Apapamall", "Address": "13 Parklane Apapa.", "State": "Lagos", "LGA": "Apapa", "Email Address": "apapamall@healthplusnigeria.com", "Phone Number": "8172012402" }, "geometry": { "type": "Point", "coordinates": [ 3.3618376, 6.4482524 ] } },
{ "type": "Feature", "properties": { "Name": "Medplus-Apapa Mall", "Address": "Apapa Mall, No. 12 Park Lane, Apapa G.R.A, Lagos", "State": "Lagos", "LGA": "Apapa", "Email Address": "apapa@medplusng.com", "Phone Number": "7015827742" }, "geometry": { "type": "Point", "coordinates": [ 3.3630556, 6.4478366 ] } },
{ "type": "Feature", "properties": { "Name": "Healthplus Domino", "Address": "11 Commercial Avenue, Sabo, Yaba", "State": "Lagos", "LGA": "Lagos Mainland", "Email Address": "dominoecenter@healthplusnigeria.com", "Phone Number": "8095898256" }, "geometry": { "type": "Point", "coordinates": [ 3.3744568, 6.506388 ] } },
{ "type": "Feature", "properties": { "Name": "Healthplus Herbert Macaulay", "Address": "346, Harbert Macaulay Way, Yaba, Lagos", "State": "Lagos", "LGA": "Lagos Mainland", "Email Address": "herbertmacaulay@healthplusnigeria.com", "Phone Number": "9087323783" }, "geometry": { "type": "Point", "coordinates": [ 3.37765, 6.5115392 ] } },
{ "type": "Feature", "properties": { "Name": "Pharmachain", "Address": "Yaba Bus Terminal, Murtala Muhammed Way, Opposite Yaba Psychiatric Hospital, Yaba, Lagos.", "State": "Lagos", "LGA": "Lagos Mainland", "Email Address": "hello@pharmachain.ng", "Phone Number": "9168224197" }, "geometry": { "type": "Point", "coordinates": [ 3.371034, 6.5103923 ] } },
{ "type": "Feature", "properties": { "Name": "Medplus-Ebute Metta", "Address": "Shop No B, Ground Floor, Mobolaji Johnson, Railway Station", "State": "Lagos", "LGA": "Lagos Mainland", "Email Address": "ebuteshop@medplusng.com", "Phone Number": "9152592989" }, "geometry": { "type": "Point", "coordinates": [ 3.3765885, 6.4975248 ] } },
{ "type": "Feature", "properties": { "Name": "Healthplus Ilupeju Byepass", "Address": "3B Ilupeju Bypass, Lagos.", "State": "Lagos", "LGA": "Mushin", "Email Address": "ilupejubyepass@healthplusnigeria.com", "Phone Number": "8090200192" }, "geometry": { "type": "Point", "coordinates": [ 3.3587248, 6.545328 ] } },
{ "type": "Feature", "properties": { "Name": "Healthplus Kakawa", "Address": "27 Kakawa Street At Sweet Sensation", "State": "Lagos", "LGA": "Lagos Island", "Email Address": "kakawa@healthplusnigeria.com", "Phone Number": "8090200200" }, "geometry": { "type": "Point", "coordinates": [ 3.3903148, 6.4527031 ] } },
{ "type": "Feature", "properties": { "Name": "Healthplus Marina", "Address": "47,Marina Street, Lagos Island", "State": "Lagos", "LGA": "Lagos Island", "Email Address": "marina@healthplusnigeria.com", "Phone Number": "9091769416" }, "geometry": { "type": "Point", "coordinates": [ 3.3938814, 6.4526585 ] } },
{ "type": "Feature", "properties": { "Name": "Healthplus Magodo 2", "Address": "Town Square Mall, Magodo Brooks", "State": "Lagos", "LGA": "Kosofe", "Email Address": "townsquare@healthplusnigeria.com", "Phone Number": "9087469783" }, "geometry": { "type": "Point", "coordinates": [ 3.365974, 6.6264082 ] } },
{ "type": "Feature", "properties": { "Name": "Healthplus Ogudu", "Address": "Alpha Mall. 117 Ojota Rd, Ogudu", "State": "Lagos", "LGA": "Kosofe", "Email Address": "ogudu@healthplusnigeria.com", "Phone Number": "9087968166" }, "geometry": { "type": "Point", "coordinates": [ 3.3797584, 6.5773376 ] } },
{ "type": "Feature", "properties": { "Name": "Healthplus Olowora", "Address": "No 1 Isheri Road. Olowora", "State": "Lagos", "LGA": "Kosofe", "Email Address": "olowora@healthplusnigeria.com", "Phone Number": "8090207476" }, "geometry": { "type": "Point", "coordinates": [ 3.3761666, 6.6399032 ] } },
{ "type": "Feature", "properties": { "Name": "3D Radiance Pharmacy", "Address": "Shop 47, Powa Shops, Ogudu Orioke By Police Barack", "State": "Lagos", "LGA": "Kosofe", "Email Address": "3deeplus@gmail.com", "Phone Number": "7084108410" }, "geometry": { "type": "Point", "coordinates": [ 3.3918106, 6.5749107 ] } },
{ "type": "Feature", "properties": { "Name": "Donom Bonitas(Db)Pharmacy", "Address": "473, Ikorodu Road Ikosi Ketu, Lagos", "State": "Lagos", "LGA": "Kosofe", "Email Address": "donombonitas@gmail.com", "Phone Number": "7081150157" }, "geometry": { "type": "Point", "coordinates": [ 3.3872779, 6.5996302 ] } },
{ "type": "Feature", "properties": { "Name": "Medplus-Magodo", "Address": "52, Adekunle Banjo Street, Lagos", "State": "Lagos", "LGA": "Kosofe", "Email Address": "magodoshop@medplusng.com", "Phone Number": "9083341953" }, "geometry": { "type": "Point", "coordinates": [ 3.3723227, 6.6138529 ] } },
{ "type": "Feature", "properties": { "Name": "Medplus-Maryland Mall", "Address": "350/360 Ikorodu Road, Maryland Mall, Lagos", "State": "Lagos", "LGA": "Kosofe", "Email Address": "marylandshop@medplusng.com", "Phone Number": "8183003894" }, "geometry": { "type": "Point", "coordinates": [ 3.3672754, 6.5676399 ] } },
{ "type": "Feature", "properties": { "Name": "Medplus-Ogudu", "Address": "45, Ogudu Road, Ojota, Gra, Lagos", "State": "Lagos", "LGA": "Kosofe", "Email Address": "ogudushop@medplusng.com", "Phone Number": "9083354474" }, "geometry": { "type": "Point", "coordinates": [ 3.384638, 6.5841066 ] } },
{ "type": "Feature", "properties": { "Name": "Medplus-Ogudu City Mall", "Address": "175, Ogudu Road, Ikeja Lagos", "State": "Lagos", "LGA": "Kosofe", "Email Address": "cityshop@medplusng.com", "Phone Number": "9152592980" }, "geometry": { "type": "Point", "coordinates": [ 3.394071, 6.5741303 ] } },
{ "type": "Feature", "properties": { "Name": "Healthplus Stadium Road", "Address": "9 Stadium Road, Omasirichi Plaza Beside Benjack At Airforce", "State": "Rivers", "LGA": "Obio/Akpor", "Email Address": "mdp-ph@mpharma.com", "Phone Number": "08136258878/8033914732" }, "geometry": { "type": "Point", "coordinates": [ 7.0160485, 4.8351378 ] } },
{ "type": "Feature", "properties": { "Name": "Alltymz Pharmacy", "Address": "Suite 1, Milkah Plaza, Adjacent Ait, Ozuoba, Nta Road", "State": "Rivers", "LGA": "Obio/Akpor", "Email Address": "alltymzpharmacy@gmail.com", "Phone Number": "7052771536" }, "geometry": { "type": "Point", "coordinates": [ 6.952096, 4.8690794 ] } },
{ "type": "Feature", "properties": { "Name": "Psaltyfield Pharmacy", "Address": "25/27, Elelewon Off, Woji Road, G.R.A Port Harcourt", "State": "Rivers", "LGA": "Obio/Akpor", "Email Address": "psaltyfieldpharmacy01@gmail.com", "Phone Number": "08146801453, 08037073916" }, "geometry": { "type": "Point", "coordinates": [ 6.9938027, 4.8271848 ] } },
{ "type": "Feature", "properties": { "Name": "Psaltyfield Pharmacy", "Address": "2, Eneka Road, Off Gu Ake Road, Eliogboro Port Harcourt", "State": "Rivers", "LGA": "Obio/Akpor", "Email Address": "psaltyfieldpharmacy01@gmail.com", "Phone Number": "08146801453, 08037073916" }, "geometry": { "type": "Point", "coordinates": [ 7.0381588, 4.8951382 ] } },
{ "type": "Feature", "properties": { "Name": "Carlsana Pharmacy", "Address": "7 Transwoji Rd, Mercy Mall Along Slaughter - Woji Rd Opposite Eudakon Filling Station, Woji", "State": "Rivers", "LGA": "Obio/Akpor", "Email Address": "carlsanapharmacyandstores@gmail.com", "Phone Number": "07060711424, 08067038511" }, "geometry": { "type": "Point", "coordinates": [ 7.0579108, 4.8283388 ] } },
{ "type": "Feature", "properties": { "Name": "Medplus-Garden City Mall", "Address": "4, Old Aba Road, Rumuomasi, Port Harcourt", "State": "Rivers", "LGA": "Obio/Akpor", "Email Address": "gardencityshop@medplusng.com", "Phone Number": "9053887569" }, "geometry": { "type": "Point", "coordinates": [ 7.0208195, 4.8358737 ] } },
{ "type": "Feature", "properties": { "Name": "Medplus-Genesis Mall", "Address": "Phase 2, Genesis Center, 39 Tombia St, Gra 500272, Port Harcourt", "State": "Rivers", "LGA": "Obio/Akpor", "Email Address": "portharcourtshop@medplusng.com", "Phone Number": "8178739846" }, "geometry": { "type": "Point", "coordinates": [ 6.9959036, 4.8238114 ] } },
{ "type": "Feature", "properties": { "Name": "Medplus-Port Harcourt Mall", "Address": "39, Tombia Street, Gra Phase 2 Portharcourt", "State": "Rivers", "LGA": "Obio/Akpor", "Email Address": "sparphshop@medplusng.com", "Phone Number": "9082899870" }, "geometry": { "type": "Point", "coordinates": [ 6.9850453, 4.8229992 ] } },
{ "type": "Feature", "properties": { "Name": "Healthplus Surulere", "Address": "Adeniran Ogunsanya Mall, Surulere", "State": "Lagos", "LGA": "Surulere", "Email Address": "adeniranogunsanya@healthplusnigeria.com", "Phone Number": "9088980971" }, "geometry": { "type": "Point", "coordinates": [ 3.356525, 6.4952437 ] } },
{ "type": "Feature", "properties": { "Name": "Healthplus Tejuosho", "Address": "F417,Tejuosho Ultra-Modern Market, Tejuosho Rd, Opposite Diamond Bank, Tejuosho", "State": "Lagos", "LGA": "Surulere", "Email Address": "tejuosho@healthplusnigeria.com", "Phone Number": "9087198170" }, "geometry": { "type": "Point", "coordinates": [ 3.3702206, 6.5089257 ] } },
{ "type": "Feature", "properties": { "Name": "Cedarcare Pharmacy", "Address": "9, Adetola Street, Aguda, Surulere, Lagos", "State": "Lagos", "LGA": "Surulere", "Email Address": "info@cedarcarepharm.com", "Phone Number": "8131840754" }, "geometry": { "type": "Point", "coordinates": [ 3.3393869, 6.4947952 ] } },
{ "type": "Feature", "properties": { "Name": "Pillsplus Pharmacy", "Address": "Shop C21 Adeniran Ogunsanya Shopping Mall Surulere", "State": "Lagos", "LGA": "Surulere", "Email Address": "thepillsplus@gmail.com", "Phone Number": "8062179381" }, "geometry": { "type": "Point", "coordinates": [ 3.3568883, 6.4909473 ] } },
{ "type": "Feature", "properties": { "Name": "Medplus-Adeniran Ogunsanya Mall", "Address": "Shoprite Ogunsanya Mall, Surulere", "State": "Lagos", "LGA": "Surulere", "Email Address": "adeniranshop@medplusng.com", "Phone Number": "7013489763" }, "geometry": { "type": "Point", "coordinates": [ 3.3566354, 6.4909635 ] } },
{ "type": "Feature", "properties": { "Name": "Medplus-Ogunlana Drive", "Address": "113, Ogunlana Drive, Surulere, Lagos", "State": "Lagos", "LGA": "Surulere", "Email Address": "ogunlanashop@medplusng.com", "Phone Number": "8183812589" }, "geometry": { "type": "Point", "coordinates": [ 3.3520837, 6.5046067 ] } },
{ "type": "Feature", "properties": { "Name": "Cherilyn Pharmacy", "Address": "31, Circular Road Off Alcon Road, Woji, Portharcourt", "State": "Rivers", "LGA": "Port-Harcourt", "Email Address": "cherilynpharmacy21@gmail.com", "Phone Number": "9.03E+20" }, "geometry": { "type": "Point", "coordinates": [ 7.0072822, 4.8293167 ] } },
{ "type": "Feature", "properties": { "Name": "Evachris Pharmacy", "Address": "5, Uyo Street,Off Stadium Road, Port Harcourt", "State": "Rivers", "LGA": "Port-Harcourt", "Email Address": "evachrishealthcareltd@gmail.com", "Phone Number": "7065285168" }, "geometry": { "type": "Point", "coordinates": [ 7.022249, 4.8289093 ] } },
{ "type": "Feature", "properties": { "Name": "Evachris Pharmacy", "Address": "25, Bonny Street, Town Port Harcourt", "State": "Rivers", "LGA": "Port-Harcourt", "Email Address": "evachrishealthcareltd@gmail.com", "Phone Number": "7065285168" }, "geometry": { "type": "Point", "coordinates": [ 7.0203485, 4.7594179 ] } },
{ "type": "Feature", "properties": { "Name": "Psaltyfield Pharmacy", "Address": "20, Justice Mary Odili Street Off Stadium Road Port Harcourt", "State": "Rivers", "LGA": "Port-Harcourt", "Email Address": "psaltyfieldpharmacy01@gmail.com", "Phone Number": "08146801453, 08037073916" }, "geometry": { "type": "Point", "coordinates": [ 7.0148355, 4.8275473 ] } },
{ "type": "Feature", "properties": { "Name": "Medplus-Hyper City Mall", "Address": "Eastern Bypass, Ogbunabali 500262,Port-Harcourt Rivers,Nigeria", "State": "Rivers", "LGA": "Port-Harcourt", "Email Address": "hypercityshop@medplusng.com", "Phone Number": "9053835687" }, "geometry": { "type": "Point", "coordinates": [ 7.0192011, 4.7894611 ] } },
{ "type": "Feature", "properties": { "Name": "Safari Pharmacy", "Address": "Safari Pharmacy, Legacy House Opp St.Anthonys Church, Airport Road,Ugborikoko Delta State", "State": "Delta", "LGA": "Warri South", "Email Address": "healthinsurance@safaripharmacy.com", "Phone Number": "8074222746" }, "geometry": { "type": "Point", "coordinates": [ 5.7611163, 5.5419073 ] } },
{ "type": "Feature", "properties": { "Name": "Safari Pharmacy", "Address": "Safari Pharmacy ,No 46, Ogunu Road,After Lakeland School, Warri, Delta State", "State": "Delta", "LGA": "Warri South", "Email Address": "healthinsurance@safaripharmacy.com", "Phone Number": "8074208379" }, "geometry": { "type": "Point", "coordinates": [ 5.7239598, 5.5284579 ] } },
{ "type": "Feature", "properties": { "Name": "Safari Pharmacy", "Address": "Safari Pharmacy, Cedar House , Number 41 Airport Road, Opp Edjeba Junction, Warri, Delta State.", "State": "Delta", "LGA": "Warri South", "Email Address": "healthinsurance@safaripharmacy.com", "Phone Number": "8077026240" }, "geometry": { "type": "Point", "coordinates": [ 5.743501, 5.5344456 ] } },
{ "type": "Feature", "properties": { "Name": "Safari Pharmacy", "Address": "Safari Pharmacy No 112 Ajamimogha , Warri,.", "State": "Delta", "LGA": "Warri South", "Email Address": "healthinsurance@safaripharmacy.com", "Phone Number": "9050454635" }, "geometry": { "type": "Point", "coordinates": [ 5.7340959, 5.5286841 ] } },
{ "type": "Feature", "properties": { "Name": "Safari Pharmacy", "Address": "Safari Pharmacy, B & M Plaza Orhuwhorun Road, Opp Fantazia Fast Food, Urhuwhorun", "State": "Delta", "LGA": "Udu", "Email Address": "healthinsurance@safaripharmacy.com", "Phone Number": "8074017682" }, "geometry": { "type": "Point", "coordinates": [ 5.812963, 5.5060151 ] } },
{ "type": "Feature", "properties": { "Name": "Safari Pharmacy", "Address": "Safari Pharmacy Km 1, Osubi Road, Beside Lawfab Hotel, Osubi", "State": "Delta", "LGA": "Okpe", "Email Address": "healthinsurance@safaripharmacy.com", "Phone Number": "8074208865" }, "geometry": { "type": "Point", "coordinates": [ 5.8273587, 5.5949655 ] } },
{ "type": "Feature", "properties": { "Name": "Realcare Pharmacy", "Address": "38, Sokponba Road, Benin", "State": "Edo", "LGA": "Oredo", "Email Address": "realcarepharmacyorg@gmail.com", "Phone Number": "7032081011" }, "geometry": { "type": "Point", "coordinates": [ 5.6279233, 6.328768 ] } },
{ "type": "Feature", "properties": { "Name": "Kada Pharmacy", "Address": "111,Sapele Road, Benin, Edo State", "State": "Edo", "LGA": "Oredo", "Email Address": "healthcare@kadaplaza.com", "Phone Number": "8059423576" }, "geometry": { "type": "Point", "coordinates": [ 5.6280111, 6.3148279 ] } },
{ "type": "Feature", "properties": { "Name": "Realcare Pharmacy", "Address": "36, Ekenwan Road, Benin", "State": "Edo", "LGA": "Egor", "Email Address": "realcarepharmacyorg@gmail.com", "Phone Number": "7032081011" }, "geometry": { "type": "Point", "coordinates": [ 5.568484, 6.3163838 ] } },
{ "type": "Feature", "properties": { "Name": "Exc Phamacy", "Address": "3,Dan Okehi Street Off Okpanam Road Asaba", "State": "Delta", "LGA": "Oshimili South", "Email Address": "Imelda.ojei@excareng.com", "Phone Number": "8152355358" }, "geometry": { "type": "Point", "coordinates": [ 6.6958939, 6.2059295 ] } },
{ "type": "Feature", "properties": { "Name": "Medplus-Asaba Mall", "Address": "Shop 33A, Asaba Mall Central Area, Asaba, Nigeria", "State": "Delta", "LGA": "Oshimili South", "Email Address": "asabashop@medplusng.com", "Phone Number": "9096449307" }, "geometry": { "type": "Point", "coordinates": [ 6.6959317, 6.2060187 ] } },
{ "type": "Feature", "properties": { "Name": "Exc Phamacy", "Address": "7, Channels Tv Avenue Opic Isheri Estate", "State": "Ogun", "LGA": "Ifo", "Email Address": "Imelda.ojei@excareng.com", "Phone Number": "8152355358" }, "geometry": { "type": "Point", "coordinates": [ 3.3931698, 6.6400408 ] } },
{ "type": "Feature", "properties": { "Name": "Famacare Centre Limited", "Address": "11, Amusan Street Off Puposhola Road New Oko Oba Abule Egba", "State": "Lagos", "LGA": "Ifako/Ijaye", "Email Address": "info@famacare.com", "Phone Number": "9070040303" }, "geometry": { "type": "Point", "coordinates": [ 3.312905, 6.6609709 ] } },
{ "type": "Feature", "properties": { "Name": "Famacare Centre Limited", "Address": "108, Akowonjo Road Egbeda.", "State": "Lagos", "LGA": "Alimosho", "Email Address": "info@famacare.com", "Phone Number": "9070040301" }, "geometry": { "type": "Point", "coordinates": [ 3.3089916, 6.6023603 ] } },
{ "type": "Feature", "properties": { "Name": "Joelad Pharmacy", "Address": "186, Boys Town B/Stop Opp. St. Ferdinand Catholic Church, Ipaja Road", "State": "Lagos", "LGA": "Alimosho", "Email Address": "joeladsunnyrx@gmail.com", "Phone Number": "8033544605" }, "geometry": { "type": "Point", "coordinates": [ 3.2691424, 6.606131 ] } },
{ "type": "Feature", "properties": { "Name": "Medplus-Egbeda", "Address": "1 Muhammed Street, Off Santos Layout, Akowonjo Roundabout, Egbeda", "State": "Lagos", "LGA": "Alimosho", "Email Address": "egbedashop@medplusng.com", "Phone Number": "9053835688" }, "geometry": { "type": "Point", "coordinates": [ 3.2910616, 6.5915737 ] } },
{ "type": "Feature", "properties": { "Name": "Zaimah Pharmacy", "Address": "Suites 4,5,6, Bolon Shopping Complex, Lagos Street Maiduguri", "State": "Borno", "LGA": "Maiduguri", "Email Address": "zaimahpharm@gmail.com", "Phone Number": "08059535354/08034568958" }, "geometry": { "type": "Point", "coordinates": [ 13.166699, 11.8202491 ] } },
{ "type": "Feature", "properties": { "Name": "Morlad Pharmacy", "Address": "2, Bauchi Street, Fatima Lale Plaza, Jimeta Yola, Adamawa", "State": "Adamawa", "LGA": "Yola North", "Email Address": "funmi.owa@gmail.com", "Phone Number": "7065519150" }, "geometry": { "type": "Point", "coordinates": [ 12.4356686, 9.2785526 ] } },
{ "type": "Feature", "properties": { "Name": "Muri Pharmacy", "Address": "6, Gimba Road, Jimeta, Yola, Adamawa", "State": "Adamawa", "LGA": "Yola North", "Email Address": "Muripharm@gmail.com ,yohannasahabo@gmail.com", "Phone Number": null }, "geometry": { "type": "Point", "coordinates": [ 12.4473609, 9.26594 ] } },
{ "type": "Feature", "properties": { "Name": "Psaltyfield Pharmacy", "Address": "Port Harcourt Airport Omagwa", "State": "Rivers", "LGA": "Ikwerre", "Email Address": "psaltyfieldpharmacy01@gmail.com", "Phone Number": "08146801453, 08037073916" }, "geometry": { "type": "Point", "coordinates": [ 6.9540808, 5.0151607 ] } },
{ "type": "Feature", "properties": { "Name": "Apex Pharmacy", "Address": "No 243, Bama Road Opposite Federal Government College (Fgc) Maiduguri", "State": "Borno", "LGA": "Jere", "Email Address": "Paulineapeh@gmail.com, apehjames@gmail.com", "Phone Number": "8025254860" }, "geometry": { "type": "Point", "coordinates": [ 13.1811704, 11.8132621 ] } },
{ "type": "Feature", "properties": { "Name": "Pharmachain", "Address": "Harboni Compound, Queen Elizabeth Road, Opposite Uch, Ibadan.", "State": "Oyo", "LGA": "Egbeda", "Email Address": "hello@pharmachain.ng", "Phone Number": "9168224197" }, "geometry": { "type": "Point", "coordinates": [ 3.9470396, 7.3775355 ] } },
{ "type": "Feature", "properties": { "Name": "Medplus-Mayfair", "Address": "Gardens Awoyaya Lekki, Lagos", "State": "Lagos", "LGA": "Ibeju Lekki", "Email Address": "mayfairshop@medplusng.com", "Phone Number": "9091390586" }, "geometry": { "type": "Point", "coordinates": [ 3.7051201, 6.4652268 ] } },
{ "type": "Feature", "properties": { "Name": "Medplus-Lakowe, Ibeju", "Address": "Bnb Mall, Lakowe Golf, Ibeju Lekki Expresway, Lagos.", "State": "Lagos", "LGA": "Ibeju Lekki", "Email Address": "lakoweshop@medplusng.com", "Phone Number": "8072780173" }, "geometry": { "type": "Point", "coordinates": [ 3.7414204, 6.4738627 ] } },
{ "type": "Feature", "properties": { "Name": "Medplus-Jakande", "Address": "Ifitness Lekki Expressway, Jakande First Gate", "State": "Lagos", "LGA": "Ibeju Lekki", "Email Address": "jakandeshop@medplusng.com", "Phone Number": "8179689402" }, "geometry": { "type": "Point", "coordinates": [ 3.7037368, 6.468597 ] } },
{ "type": "Feature", "properties": { "Name": "Medplus-Festac", "Address": "22, Tfc Building, Festac Town, Lagos", "State": "Lagos", "LGA": "Amuwo Odofin", "Email Address": "festacshop@medplusng.com", "Phone Number": "9082259427" }, "geometry": { "type": "Point", "coordinates": [ 3.2850398, 6.4654452 ] } },
{ "type": "Feature", "properties": { "Name": "Medplus-Groove Mall", "Address": "22 Road, Festac", "State": "Lagos", "LGA": "Amuwo Odofin", "Email Address": "groovemallshop@medplusng.com", "Phone Number": "9053927664" }, "geometry": { "type": "Point", "coordinates": [ 3.2838087, 6.4664428 ] } },
{ "type": "Feature", "properties": { "Name": "Medplus-Abia Mall", "Address": "Umuahia/Ulalaka Street, Abia Mall", "State": "Abia", "LGA": "Umuahia North", "Email Address": "abiashop@medplusng.com", "Phone Number": "9096449298" }, "geometry": { "type": "Point", "coordinates": [ 7.4922407, 5.5249526 ] } },
{ "type": "Feature", "properties": { "Name": "Medplus-Delta Mall", "Address": "Shop 31A, Delta Mall Shoprite , Warri", "State": "Delta", "LGA": "Uvwie", "Email Address": "deltashop@medplusng.com", "Phone Number": "9092556067" }, "geometry": { "type": "Point", "coordinates": [ 5.7833513, 5.5708164 ] } },
{ "type": "Feature", "properties": { "Name": "Medplus-Enugu Mall", "Address": "Enugu Store Opposite Opara Square", "State": "Enugu", "LGA": "Enugu North", "Email Address": "enugushop@medplusng.com", "Phone Number": "9091186816" }, "geometry": { "type": "Point", "coordinates": [ 7.5138947, 6.4482701 ] } },
{ "type": "Feature", "properties": { "Name": "Medplus-Onitsha Mall", "Address": "7, Parkroad Gra, Off Abs Junction Awka Road, Onitsha", "State": "Anambra", "LGA": "Onitsha North", "Email Address": "onitshashop@medplusng.com", "Phone Number": "9084408810" }, "geometry": { "type": "Point", "coordinates": [ 6.8022263, 6.1512446 ] } },
{ "type": "Feature", "properties": { "Name": "Medplus-Priceless Mall", "Address": "Plot C9, Okigwe Road, By Orji Flyover, Owerri", "State": "Imo", "LGA": "Mbatoli", "Email Address": "priceshop@medplusng.com", "Phone Number": "9150493175" }, "geometry": { "type": "Point", "coordinates": [ 7.1287591, 5.6132058 ] } },
{ "type": "Feature", "properties": { "Name": "Medplus-Tropicana", "Address": "Tropicana Mall, Udo Udoma Ave, Uyo", "State": "Akwa ibom", "LGA": "Uyo", "Email Address": "tropicanashop@medplusng.com", "Phone Number": "8077791538" }, "geometry": { "type": "Point", "coordinates": [ 7.9396161, 4.9978787 ] } },
{ "type": "Feature", "properties": { "Name": "El-Charis Pharmacy", "Address": "132, Nsikak Eduok Avenue, Uyo, Akwa-Ibom", "State": "Akwa ibom", "LGA": "Uyo", "Email Address": "elcharispharmacy@gmail.com", "Phone Number": "8125316232" }, "geometry": { "type": "Point", "coordinates": [ 7.9324416, 5.0094154 ] } },
{ "type": "Feature", "properties": { "Name": "Medplus-Awka", "Address": "City Plaza; 6 Abakaliki Street, Awka, Anambra State", "State": "Anambra", "LGA": "Awka South", "Email Address": "awkacity@medplusng.com", "Phone Number": "7052290820" }, "geometry": { "type": "Point", "coordinates": [ 7.0579867, 6.2234323 ] } },
{ "type": "Feature", "properties": { "Name": "Medplus-Foodco Jericho", "Address": "Foodco Jericho Nursing Home, All Saints Road, Ibadan", "State": "Oyo", "LGA": "Ibadan North West", "Email Address": "jerichoshop@medplusng.com", "Phone Number": "9152592977" }, "geometry": { "type": "Point", "coordinates": [ 3.8697856, 7.3996569 ] } },
{ "type": "Feature", "properties": { "Name": "Medplus-Ringroad", "Address": "Ul 22, Palms Mall Ibadan", "State": "Oyo", "LGA": "Ibadan South West", "Email Address": "ringroad@medplusng.com", "Phone Number": "7015827741" }, "geometry": { "type": "Point", "coordinates": [ 3.8654608, 7.3639585 ] } },
{ "type": "Feature", "properties": { "Name": "Medplus-Foodco, Ibadan", "Address": "Foodco Beside Ibedc, Ringroad, Ibadan", "State": "Oyo", "LGA": "Ibadan South West", "Email Address": "foodcoshop@medplusng.com", "Phone Number": "7038899142" }, "geometry": { "type": "Point", "coordinates": [ 3.8585763, 7.3725508 ] } },
{ "type": "Feature", "properties": { "Name": "Medplus-Richbam Store", "Address": "Richbam Building, Soko Area, New Felele, Ibadan", "State": "Oyo", "LGA": "Ibadan North", "Email Address": "richbamshop@medplusng.com", "Phone Number": "7052290818" }, "geometry": { "type": "Point", "coordinates": [ 3.881027, 7.4216583 ] } },
{ "type": "Feature", "properties": { "Name": "Medplus-Kwara Mall", "Address": "Beside Shoprite Fate Road, Ilorin", "State": "Kwara", "LGA": "Ilorin South", "Email Address": "kwarashop@medplusng.com", "Phone Number": "7013489464" }, "geometry": { "type": "Point", "coordinates": [ 4.5861224, 8.4990801 ] } },
{ "type": "Feature", "properties": { "Name": "Medplus-Osun Mall", "Address": "Shop 36, Osun Mallolaiya, Oshogbo", "State": "Osun", "LGA": "Osogbo", "Email Address": "osunshop@medplusng.com", "Phone Number": "9053790053" }, "geometry": { "type": "Point", "coordinates": [ 4.5418141, 7.7826709 ] } },
{ "type": "Feature", "properties": { "Name": "Medplus-Galaxy Mall", "Address": "22 Wharf Road, Off Ahmadu Bello Way, City Centre, Kaduna", "State": "Kaduna", "LGA": "Kaduna North", "Email Address": "galaxyshop@medplusng.com", "Phone Number": "7052290815" }, "geometry": { "type": "Point", "coordinates": [ 7.4304385, 10.5153578 ] } },
{ "type": "Feature", "properties": { "Name": "Medplus-King'S Bite, Jos", "Address": "King'S Bite, British American Junction. Bauchi Road, Jos Plateu State", "State": "Plateau", "LGA": "Jos North", "Email Address": "kingsbiteshop@medplusng.com", "Phone Number": "8183004215" }, "geometry": { "type": "Point", "coordinates": [ 8.890349, 9.8990321 ] } },
{ "type": "Feature", "properties": { "Name": "Medplus-Ado Bayero", "Address": "Ado Bayero Mall, Zoo Road, Kano", "State": "Kano", "LGA": "Kano Municipal", "Email Address": "bayeroshop@medplusng.com", "Phone Number": "9084408843" }, "geometry": { "type": "Point", "coordinates": [ 8.5347908, 11.9775729 ] } }
]
}
