{
"type": "FeatureCollection",
"name": "Physiotherapy_Clinics",
"crs": { "type": "name", "properties": { "name": "urn:ogc:def:crs:OGC:1.3:CRS84" } },
"features": [
{ "type": "Feature", "properties": { "Name": "Physio Centers Of Africa Limited", "Address": "Plot 1677 Olakunle Bakare Close, Off Sanusi Fafunwa Street, By Stanbic Ibtc Pension, Vi", "State": "Lagos", "LGA": "Eti Osa", "HMO Plan": "Plan3" }, "geometry": { "type": "Point", "coordinates": [ 3.4266217, 6.4304193 ] } },
{ "type": "Feature", "properties": { "Name": "Physical Therapy Centre", "Address": "32 Ademola Adetokunbo Street, Vi", "State": "Lagos", "LGA": "Eti Osa", "HMO Plan": "Plan2" }, "geometry": { "type": "Point", "coordinates": [ 3.4305338, 6.4348731 ] } },
{ "type": "Feature", "properties": { "Name": "Taforehab Pelvic And Orthopaedic Wellness Clinic", "Address": "Plot 155A, Prince Ade Odedina Street", "State": "Lagos", "LGA": "Eti Osa", "HMO Plan": "Plan3" }, "geometry": { "type": "Point", "coordinates": [ 3.4373583, 6.4274089 ] } },
{ "type": "Feature", "properties": { "Name": "Johnson Gibbs Physiotherapy Clinic", "Address": "5, Princess Dolo St Elf B/Stop Lekki Epe Express Way", "State": "Lagos", "LGA": "Eti Osa", "HMO Plan": "Plan1" }, "geometry": { "type": "Point", "coordinates": [ 3.5851718, 6.4698419 ] } },
{ "type": "Feature", "properties": { "Name": "St Joseph Physiotherapy Clinic", "Address": "21B, Christ Avenue, Off Admiralty Way, Lekki Phase 1, Lekki", "State": "Lagos", "LGA": "Eti Osa", "HMO Plan": "Plan2" }, "geometry": { "type": "Point", "coordinates": [ 3.4731331, 6.4553694 ] } },
{ "type": "Feature", "properties": { "Name": "Wellpath Physiotherapy", "Address": "No 29 Ademola Street Off Awolowo Road Ikoyi", "State": "Lagos", "LGA": "Eti Osa", "HMO Plan": "Plan3" }, "geometry": { "type": "Point", "coordinates": [ 3.4143473, 6.4416482 ] } },
{ "type": "Feature", "properties": { "Name": "Retmed Physiotherapy And Wellness Centre", "Address": "27 Adegbenle Bolarinwa Street, Opp New Hall International School, Chevy View Estate, Chevron Drive", "State": "Lagos", "LGA": "Eti Osa", "HMO Plan": "Plan1" }, "geometry": { "type": "Point", "coordinates": [ 3.526517, 6.4459486 ] } },
{ "type": "Feature", "properties": { "Name": "Physiocraft Allied Health Services Abuja", "Address": "Suite A5 Tswanya Centre, Muhammadu Buhari Way, Opposite Nipost Hq, Area 11, Garki", "State": "Abuja", "LGA": "Municipal Area Council", "HMO Plan": "Plan1" }, "geometry": { "type": "Point", "coordinates": [ 7.4971826, 9.0310929 ] } },
{ "type": "Feature", "properties": { "Name": "Optima Health Physio Consult", "Address": "Plot 879/880 Idris Ibrahim Crescent, Off Obafemi Awolowo Way, Jabi", "State": "Abuja", "LGA": "Municipal Area Council", "HMO Plan": "Plan1" }, "geometry": { "type": "Point", "coordinates": [ 7.416435, 9.0599765 ] } },
{ "type": "Feature", "properties": { "Name": "Amazing Physiotherapy And Wellness Center Ltd", "Address": "No 33 Ubiaja Crescent Garki 2 Abuja,", "State": "Abuja", "LGA": "Municipal Area Council", "HMO Plan": "Plan1" }, "geometry": { "type": "Point", "coordinates": [ 7.4906022, 9.0154132 ] } },
{ "type": "Feature", "properties": { "Name": "Mackenzie Physiotherapy", "Address": "5 Malumfashi Close, Inside Alliance Hospital Garki", "State": "Abuja", "LGA": "Municipal Area Council", "HMO Plan": "Plan1" }, "geometry": { "type": "Point", "coordinates": [ 7.4951797, 9.0424268 ] } },
{ "type": "Feature", "properties": { "Name": "Rosemech Physiotherapy Limited", "Address": "Area 8 Tafawa Balewa Way Garki Hospital", "State": "Abuja", "LGA": "Municipal Area Council", "HMO Plan": "Plan1" }, "geometry": { "type": "Point", "coordinates": [ 7.4943134, 9.0419353 ] } },
{ "type": "Feature", "properties": { "Name": "Fitness Global Consult Physiotherapy Clinic", "Address": "20 Limpopo Street Off Yedseram Street Fha Maitama", "State": "Abuja", "LGA": "Municipal Area Council", "HMO Plan": "Plan1" }, "geometry": { "type": "Point", "coordinates": [ 7.497168, 9.0887182 ] } },
{ "type": "Feature", "properties": { "Name": "Neuromuscular Rehabilitation Service", "Address": "26 Vaal Street Off Rhine Street Maitama", "State": "Abuja", "LGA": "Municipal Area Council", "HMO Plan": "Plan1" }, "geometry": { "type": "Point", "coordinates": [ 7.4885732, 9.1048348 ] } },
{ "type": "Feature", "properties": { "Name": "Body Mechanics Physiotherapy And Wellness Center", "Address": "16 Banjul Street, Off Monrovia Street, Aminu Kano Crescent", "State": "Abuja", "LGA": "Municipal Area Council", "HMO Plan": "Plan4" }, "geometry": { "type": "Point", "coordinates": [ 7.4721495, 9.082449 ] } },
{ "type": "Feature", "properties": { "Name": "Bamfak Rehabilitation And Physiotherapy Ltd", "Address": "Road 37 House 19 Jj Okocha Street 3Rd Avenue Gwarinpa Abuja", "State": "Abuja", "LGA": "Municipal Area Council", "HMO Plan": "Plan2" }, "geometry": { "type": "Point", "coordinates": [ 7.3987449, 9.1118058 ] } },
{ "type": "Feature", "properties": { "Name": "Unique Physiotherapy Clinic And Fitness Ltd.", "Address": "No 19 Karu Court Estate Abacha Road Mararaba Along Abuja Keffi Road", "State": "Abuja", "LGA": "Municipal Area Council", "HMO Plan": "Plan1" }, "geometry": { "type": "Point", "coordinates": [ 7.5862758, 9.0251678 ] } },
{ "type": "Feature", "properties": { "Name": "Physical Therapy Centre", "Address": "12 Herbert Macaulay Crescent, Ikeja Gra", "State": "Lagos", "LGA": "Ikeja", "HMO Plan": "Plan2" }, "geometry": { "type": "Point", "coordinates": [ 3.345479, 6.5804988 ] } },
{ "type": "Feature", "properties": { "Name": "Physio Centres Of Africa Gbagada", "Address": "23 Olumoroti Jaiyesimi Street, Gbagada Phase 2", "State": "Lagos", "LGA": "Shomolu", "HMO Plan": "Plan3" }, "geometry": { "type": "Point", "coordinates": [ 3.3839397, 6.5465998 ] } },
{ "type": "Feature", "properties": { "Name": "Physioaid Nigeria Limited", "Address": "27, Mabinuori Dawodu Street, Charly Boy Bus/Stop, Gbagada Phase 1 And Plot 2 Block 1, Oba Of Benin Road, Lonex Gardens, Opic B/Stop, Lagos Nigeria", "State": "Lagos", "LGA": "Shomolu", "HMO Plan": "Plan1" }, "geometry": { "type": "Point", "coordinates": [ 3.3759125, 6.5489505 ] } },
{ "type": "Feature", "properties": { "Name": "Aptcare Physiotherapy Consult", "Address": "146 Gado Nasco Way, Phase Iv Kubwa", "State": "Abuja", "LGA": "Bwari", "HMO Plan": "Plan1" }, "geometry": { "type": "Point", "coordinates": [ 7.3388732, 9.1535961 ] } },
{ "type": "Feature", "properties": { "Name": "Fityard Wellness And Fitness", "Address": "Fityard Wellness And Fitness Ltd, Adjacent University Of Abuja Mini-Campus Law Faculty Gate By Angle 90 Junction Phase 1 Gwagwalada, F.C.T. Abuja.", "State": "Abuja", "LGA": "Gwagwalada", "HMO Plan": "Plan3" }, "geometry": { "type": "Point", "coordinates": [ 7.0754421, 8.9493979 ] } },
{ "type": "Feature", "properties": { "Name": "Premium Physiotherapy And Diagnostics Ltd", "Address": "16 Awka Street, Beside Federal Road Safety Commission, Aba Road,", "State": "Rivers", "LGA": "Port-Harcourt", "HMO Plan": "Plan1" }, "geometry": { "type": "Point", "coordinates": [ 7.0024102, 4.7953169 ] } },
{ "type": "Feature", "properties": { "Name": "Naphtali Physiotherapy And Wellness Clinic", "Address": "15 Igbodo Street Old Gra", "State": "Rivers", "LGA": "Port-Harcourt", "HMO Plan": "Plan1" }, "geometry": { "type": "Point", "coordinates": [ 7.0034912, 4.7910551 ] } },
{ "type": "Feature", "properties": { "Name": "Body Therapy Clinic", "Address": "14 Trans Woji Slaughter Road,", "State": "Rivers", "LGA": "Obio/Akpor", "HMO Plan": "Plan1" }, "geometry": { "type": "Point", "coordinates": [ 7.051971, 4.8196018 ] } },
{ "type": "Feature", "properties": { "Name": "Soft Touch Physiotherapy And Wellness Centre", "Address": "10 Ogwutum Avenue Off Nta Mgbuoba Road Port Harcourt, Rivers State, Nigeria.", "State": "Rivers", "LGA": "Obio/Akpor", "HMO Plan": "Plan1" }, "geometry": { "type": "Point", "coordinates": [ 6.967304, 4.8619066 ] } },
{ "type": "Feature", "properties": { "Name": "Bodycare Nigeria Limited", "Address": "46 Chief Wopara Street, Rumuobiakani, Portharcourt", "State": "Rivers", "LGA": "Obio/Akpor", "HMO Plan": "Plan1" }, "geometry": { "type": "Point", "coordinates": [ 7.0292412, 4.8344078 ] } },
{ "type": "Feature", "properties": { "Name": "J Adams Physiotherapy And Medical Fitness Centre", "Address": "12B Ustaz Yunus Road, Abakpa, Kaduna", "State": "Kaduna", "LGA": "Kaduna North", "HMO Plan": "Plan1" }, "geometry": { "type": "Point", "coordinates": [ 7.4337395, 10.503644 ] } }
]
}
